ID,Name,Type,Longitude ,Latitude ,Evacuation_Centers
0,Beligaha Junction,junction,80.2176095,6.0577241,
1,Julgaha Junction,junction,80.2080099,6.0530731,
2,level_crossing,level_crossing,80.2067628,6.0524737,
3,level_crossing,level_crossing,80.1967326,6.0544546,
4,Peduruwella Junction,junction,80.2076608,6.0428919,
5,mini_roundabout,mini_roundabout,80.5488765,5.9448778,
6,mini_roundabout,mini_roundabout,80.5925466,7.2658888,
7,Rawana Ella Falls,attraction,81.0545064,6.8409997,
8,crossing,crossing,80.2120468,6.0435163,
9,level_crossing,level_crossing,80.1999061,6.0543196,
10,level_crossing,level_crossing,80.2219357,6.0415643,
11,level_crossing,level_crossing,80.2151552,6.0405914,
12,Sinhagiri Building,traffic_signals,80.9888732,6.8304482,
13,Rathgama Junction,junction,80.1415876,6.091494,
14,traffic_signals,traffic_signals,79.8659103,6.8513066,
15,level_crossing,level_crossing,80.1894272,6.0538287,
16,level_crossing,level_crossing,80.2136933,6.0402372,
17,level_crossing,level_crossing,80.2390141,6.0342178,
18,traffic_signals,traffic_signals,79.8638054,6.8624541,
19,traffic_signals,traffic_signals,79.8660577,6.8513023,
20,level_crossing,level_crossing,80.1568521,6.0759817,
21,level_crossing,level_crossing,80.1419464,6.0918261,
22,Boossa,station,80.1611139,6.073831,
23,Kumarakanda,station,80.124233,6.1123269,
24,traffic_signals,traffic_signals,79.8781681,6.9437865,
25,traffic_signals,traffic_signals,79.8784454,6.9503454,
26,traffic_signals,traffic_signals,79.8771349,6.8969859,
27,level_crossing,level_crossing,80.1955113,6.053994,
28,Sanghamitta College,school,80.2121695,6.0471249,Yes
29,Mahinda College,school,80.2151194,6.0494692,Yes
30,Richmond College,school,80.2058949,6.052497,Yes
31,Leeds International College,school,80.2169341,6.0536761,Yes
32,Jennath International School,school,80.2234114,6.0481631,Yes
33,cinema,cinema,80.2167113,6.0341188,
34,Cargills Food City,supermarket,80.215379,6.0333734,
35,Mahagedara Sundale Food City,supermarket,80.2212002,6.0482585,
36,Sea Fair Food City,supermarket,80.2197472,6.0349158,
37,level_crossing,level_crossing,80.2405702,6.0322347,
38,Ceylinco Sussex College - Bandarawella,school,80.97719,6.8390855,Yes
39,Lighthouse Hotel & Spa,hotel,80.19465,6.0421075,
40,Tuwakugala Temple,place_of_worship,80.2193468,6.0411635,Yes
41,Wijayananda Temple,place_of_worship,80.2205901,6.03943,Yes
42, Temple,place_of_worship,80.2204785,6.044276,Yes
43,Piyathigama,station,80.190787,6.053705,
44,Ceylinco Sussex College - Galle,school,80.2041564,6.0573239,Yes
45,Thiranagama,station,80.1144039,6.1223608,
46,level_crossing,level_crossing,80.1117805,6.1242428,
47,level_crossing,level_crossing,80.107668,6.1271275,
48,traffic_signals,traffic_signals,79.8655066,6.927307,
49,traffic_signals,traffic_signals,79.8639232,6.929049,
50,Kollupitiya,station,79.848095,6.9112982,
51,Bambalapitiya,station,79.8529462,6.8934925,
52,Kompanna Vidiya (Slave Island),station,79.8495588,6.9235162,
53,Ginthota,station,80.1792825,6.0609005,
54,Dehiwela,station,79.8620928,6.8509003,
55,Mount Lavinia,station,79.862578,6.8318228,
56,Panadura,station,79.9044706,6.7124126,
57,Wadduwa,station,79.9285569,6.6631559,
58,level_crossing,level_crossing,79.9454599,6.6186561,
59,Kalutara North,station,79.9542495,6.6011962,
60,Kalutara South,station,79.9589021,6.5840293,
61,level_crossing,level_crossing,79.9791686,6.5208157,
62,Payagala,station,79.9787169,6.5220496,
63,level_crossing,level_crossing,80.1361834,6.0963972,
64,Dodanduwa,station,80.132896,6.0982724,
65,level_crossing,level_crossing,80.1249829,6.1115679,
66,Hikkaduwa,station,80.1001478,6.1420597,
67,Seenigama,station,80.0947898,6.158599,
68,Kahawe,station,80.0740131,6.1832204,
69,level_crossing,level_crossing,80.0644016,6.2029916,
70,Madampagama,station,80.0612519,6.2122142,
71,level_crossing,level_crossing,80.0550864,6.2338843,
72,Ambalangoda,station,80.0550766,6.2353162,
73,Balapititya,station,80.0433602,6.2763798,
74,Ahungalla,station,80.0376128,6.312778,
75,Kosgoda,station,80.0293911,6.3385972,
76,Richmond Hill,station,80.2047817,6.0538463,
77,level_crossing,level_crossing,80.1633872,6.0727005,
78,Secretariat Railway Station,station,79.8460292,6.9315069,
79,Wellawatta,station,79.8574503,6.8748378,
80,Kalutara Bodhiya,place_of_worship,79.9601326,6.5869445,Yes
81,Sinharaja Hermitage Temple,place_of_worship,80.6107565,6.4533677,Yes
82,Hirimbura Junction,junction,80.2176693,6.0656358,
83,Ananda College,school,80.2094164,6.0626307,Yes
84,traffic_signals,traffic_signals,79.8614159,6.918699,
85,traffic_signals,traffic_signals,79.8709071,6.9115314,
86,crossing,crossing,80.0229443,6.7219952,
87,crossing,crossing,80.037951,6.7250658,
88,Delkanda Junction,traffic_signals,79.9014532,6.8630104,
89,Gamsabha Junction,traffic_signals,79.8965756,6.8651356,
90,Labuduwa Junction,junction,80.2338355,6.0706892,
91,Sacred Heart Convent,school,80.2110256,6.0365987,Yes
92,Saint Aloysius College,school,80.2121328,6.0361207,Yes
93,Saint Aloysius Church,place_of_worship,80.2127679,6.0358305,Yes
94,level_crossing,level_crossing,80.227699,6.0402523,
95,level_crossing,level_crossing,80.0040183,6.4027815,
96,Mahamodara Teaching Hospital,hospital,80.2061978,6.0384341,Yes
97,Temple,place_of_worship,80.2189176,6.0391918,Yes
98,Temple,place_of_worship,80.2223937,6.0452605,Yes
99,Galwadugoda Temple,place_of_worship,80.2100255,6.0420512,Yes
100,B.I.A. College,school,80.2179006,6.0254211,Yes
101,Meeran Mosque,place_of_worship,80.2187177,6.0246327,Yes
102,All Saints College,school,80.2161964,6.0281408,Yes
103, ,parking,79.8542735,6.8933931,
104,Methodist Church Kollupitiya,place_of_worship,79.8493649,6.9116713,Yes
105,Methodist College Kollupitiya,school,79.8494185,6.9115647,Yes
106,United States Embassy,embassy,79.8488273,6.9132025,
107,Indian High Commission Colombo,embassy,79.8468139,6.9194623,
108,traffic_signals,traffic_signals,79.8770546,6.8942085,
109,traffic_signals,traffic_signals,79.8770292,6.8923426,
110,traffic_signals,traffic_signals,79.8769337,6.8892052,
111,traffic_signals,traffic_signals,79.876818,6.8891782,
112,Lanka Hospital,hospital,79.875769,6.8896151,Yes
113,Ninewells Hospital,hospital,79.8826793,6.8952097,Yes
114,Asiri Surgical Hospital,hospital,79.8797172,6.8945486,Yes
115,Laugfs Auto,fuel,79.9302499,6.8450844,
116,Ceylinco Sussex College,school,80.7753395,6.9573638,Yes
117,crossing,crossing,80.8135922,6.8780712,
118,St.Xavier's Church,place_of_worship,80.7649851,6.9773138,Yes
119,Warwick Gardens Bungalow,hotel,80.8281294,6.8976685,
120, ,parking,80.7666598,6.9735691,
121,Nuwara Eliya Bus Stand,bus_station,80.7671899,6.9719942,
122,Grand Hotel,hotel,80.7646299,6.968705,
123,Breeta's Guest House & Restaurant,guest_house,80.4648369,6.9909831,
124,traffic_signals,traffic_signals,79.8727006,6.8785565,
125,traffic_signals,traffic_signals,79.875918,6.9113739,
126,Bellanthara Junction,traffic_signals,79.8854439,6.8482698,
127,Blue Water Hotel,hotel,79.9206772,6.6775998,
128, ,parking,79.8615882,6.9184962,
129,Arpico,supermarket,79.8609627,6.9175097,
130,Kohuwala Junction,traffic_signals,79.8846379,6.8670603,
131,Taj Samudra,hotel,79.8463141,6.9223979,
132,Ingurukade Junction,traffic_signals,79.8742076,6.9510438,
133,level_crossing,level_crossing,79.9208038,6.679084,
134,Tangerine Beach Hotel,hotel,79.948918,6.6085878,
135,level_crossing,level_crossing,79.9504094,6.6077133,
136,Devon Waterfalls,attraction,80.6301897,6.9524973,
137,level_crossing,level_crossing,80.0885193,6.1694874,
138,Thelwatta Temple,place_of_worship,80.0911801,6.1704654,Yes
139,level_crossing,level_crossing,80.1002132,6.1405631,
140,level_crossing,level_crossing,80.1002544,6.1393047,
141,Kuleegoda Temple,place_of_worship,80.0613044,6.2160001,Yes
142,Sahana Restaurant,restaurant,80.2219431,6.0641445,
143,Sahana Cool Spot,restaurant,80.220023,6.0355497,
144,place_of_worship,place_of_worship,80.2197545,6.0354983,Yes
145,Lady Hill,hotel,80.2186845,6.0385273,
146,Dutch House,hotel,80.2185394,6.0381348,
147,Sun House,hotel,80.219074,6.0378335,
148,traffic_signals,traffic_signals,79.866803,6.9116603,
149,level_crossing,level_crossing,80.0550803,6.2389652,
150,Tsunami Honganji Vihara,place_of_worship,80.0917754,6.1630477,Yes
151,Spaghetti & Co,restaurant,80.1100638,6.1248989,
152,Sahana,restaurant,80.2374945,6.033327,
153,Overseas School of Colombo,school,79.9290055,6.8926539,Yes
154,Nugegoda,traffic_signals,79.8914129,6.8734906,
155, ,mini_roundabout,79.9352953,6.8763506,
156,Galle Public Bus Station,bus_station,80.2157301,6.0329051,
157,crossing,crossing,80.0657415,6.7171989,
158,level_crossing,level_crossing,79.9191645,6.8526523,
159,Kahanda Kanda,hotel,80.3411254,6.0210488,
160,traffic_signals,traffic_signals,79.8768027,6.8855683,
161, ,mini_roundabout,79.9016592,6.8409616,
162,Joseph Fraser Memorial Hospital,hospital,79.8649782,6.895289,Yes
163,traffic_signals,traffic_signals,79.876947,6.8942055,
164,traffic_signals,traffic_signals,79.8769239,6.8923474,
165,level_crossing,level_crossing,79.8779914,6.926983,
166,traffic_signals,traffic_signals,79.8783014,6.943837,
167,traffic_signals,traffic_signals,79.8786654,6.9503167,
168,traffic_signals,traffic_signals,79.8630494,6.86604,
169,Cinnamon Lakeside Hotel,hotel,79.8488072,6.9288806,
170,place_of_worship,place_of_worship,80.2181827,6.0515446,Yes
171,place_of_worship,place_of_worship,80.2216378,6.0573005,Yes
172,Didiswatta,place_of_worship,80.2214569,6.0548541,Yes
173,crossing,crossing,80.0723331,6.7200919,
174,Oasis General Hospital,hospital,79.8794569,6.8951426,Yes
175,Waters Edge,hotel,79.9118789,6.9056506,
176,JAIC Hilton Residencies,hotel,79.8562903,6.9209164,
177,Primary Level net - Fundamental Bench Mark : Hor,survey_point,80.0622699,6.714329,
178, ,tower,79.9407399,6.7954561,
179,Wathara Hospital,hospital,79.9734516,6.7856019,Yes
180, ,fuel,79.9772792,6.784671,
181,police,police,79.9861254,6.7830852,
182,Lanka IOC,fuel,80.062695,6.716905,
183, ,fuel,80.0590364,6.7179912,
184,Lanka Filling Station,fuel,80.0594958,6.7186855,
185,Horana,police,80.069091,6.7149037,
186,Munagama sub post office,post_box,80.0682161,6.7183405,
187,Thakshila Central College,school,80.0619358,6.7120268,Yes
188,Sri Jayawardanepura teaching hospital,hospital,79.9261518,6.8683337,Yes
189,Cargils Food City,supermarket,80.0597197,6.7175146,
190,Telecom Tower (SLT),tower,80.0616589,6.715095,
191,Medi Help hospital;Medihelp Hospital,clinic;hospital,80.0593852,6.7179741,Yes
192,Dulmini Cinema,cinema,80.0612963,6.716732,
193,"Bank of Ceylon\, Horana",bank,80.062687,6.7157748,
194,"Peoples Bank\, Horana",bank,80.0633169,6.7146178,
195,"Sampath Bank\, Horana",bank,80.062798,6.7173822,
196,"Comercial Bank\, Horana",bank,80.0624117,6.7175101,
197,National Savings Bank,bank,80.0658148,6.717526,
198,traffic_signals,traffic_signals,79.8646958,6.9139377,
199,traffic_signals,traffic_signals,79.8644115,6.9117899,
200,place_of_worship,place_of_worship,80.2083534,6.0578728,Yes
201,Sri Sadhatissaramaya,place_of_worship,80.2154199,6.0578826,Yes
202,traffic_signals,traffic_signals,79.9227201,6.8017761,
203,Thakshila Primary School,school,80.0615083,6.7142134,Yes
204,University of Sri Jayewardenepura,university,79.9059902,6.8536201,
205,Cargills Food City,supermarket,79.8558071,6.9202408,
206,crossing,crossing,80.0749138,6.7213225,
207,CTB  Depot - Horana,bus_station,80.0751124,6.7219363,
208, ,parking,79.8912301,6.8727682,
209,Commercial Bank of Ceylon PLC,bank,79.8849608,6.8663027,
210, ,fuel,79.9311227,6.7967786,
211, ,fuel,79.9270794,6.798289,
212, ,fuel,79.9226617,6.8021346,
213, ,fuel,79.8982001,6.8481442,
214, ,fuel,79.8850624,6.8660166,
215, ,fuel,79.8876451,6.8826924,
216,police,police,79.9225866,6.8022413,
217,Somaweera Chandrasiri Kanishta Vidyalaya,school,79.9230047,6.8033559,Yes
218,National Savings Bank,bank,79.9242797,6.8010035,
219,Seylan Bank,bank,80.064409,6.7163831,
220,Pizza Hut Nugegoda,fast_food,79.8902205,6.8691129,
221,Sampath Bank Battaramulla,bank,79.9164296,6.9019577,
222,Prajapathee Balika Vidyalaya,school,80.0804785,6.7160681,Yes
223,CPC,fuel,80.0021452,6.8409794,
224,Nalanda Privena,place_of_worship,80.0821652,6.7629819,Yes
225,Bhodirukkaramaya,place_of_worship,80.077285,6.7225666,Yes
226, ,grave_yard,80.0766773,6.7203482,
227,Sripalee Vidyalaya,school,80.068539,6.707453,Yes
228,Sripalee primary,school,80.073846,6.700566,Yes
229,Thakshila primary,school,80.0705634,6.7139662,Yes
230,Rajakeeya Vidyalaya,school,80.0693193,6.7168268,Yes
231,Kesbewa Rest house,guest_house,79.9389592,6.7927235,
232, ,parking,79.9267685,6.86705,
233,crossing,crossing,79.9745168,6.7064058,
234,crossing,crossing,80.695776,7.9264513,
235, ,mini_roundabout,80.7554367,8.039843,
236, ,parking,80.7573674,7.9555599,
237,Vil Uyana,hotel,80.7205407,7.9295562,
238, ,bus_stop,80.5964491,7.2673862,
239,McDonalds,restaurant,79.8886581,6.9099433,
240,Heritance Kandalama,hotel,80.7077384,7.8712851,
241,Golden Temple,place_of_worship,80.6514087,7.8555093,Yes
242,Dambula Rock Temple,place_of_worship,80.6485929,7.8567206,Yes
243, ,mini_roundabout,80.6234791,7.4660274,
244, ,parking,80.9982291,7.9425019,
245,Minneriya National Park,information,80.823612,8.0327164,
246,Dambula,post_office,80.6516125,7.8629873,
247,Dambula Bus Station,bus_station,80.6512657,7.8705117,
248,Matale Police Station,police,80.6262053,7.4626336,
249,Cafe Lavinia,cafe,79.8572283,6.8943284,
250,Kingston College International,school,79.8624412,6.87985,Yes
251,St. Peter's College,school,79.8597474,6.8804405,Yes
252,Gateway College,school,79.9003498,6.9032654,Yes
253,school,school,80.2378414,6.0334998,Yes
254,Ceypetco,fuel,80.239977,6.0320111,
255,Unawatuna Beach Resort,hotel,80.2489798,6.0099954,
256,Kingswood College,school,80.6158543,7.2780732,Yes
257,crossing,crossing,80.1149518,6.7352615,
258,CEYPETCO - Ebert Silva,fuel,79.8658742,6.8539417,
259,level_crossing,level_crossing,80.4564608,5.965616,
260, ,post_office,80.4555325,5.9505204,
261, ,post_box,80.467988,5.9525716,
262,Castle street Hospital for Women,hospital,79.884706,6.9107553,Yes
263,Devi Balika Vidyalaya,school,79.8825201,6.9108542,Yes
264,Durdans Hospital,hospital,79.8534983,6.9018528,Yes
265,Hospital Carpark,parking,79.854658,6.9018754,
266,Joseph Frazer Maternity Hospital Car Park,parking,79.8647173,6.894992,
267,Cargills Food City,supermarket,79.866691,6.8910882,
268,The Coffee Bean and Tea Leaf,restaurant,79.8666865,6.9115097,
269,Laugfs,fuel,79.8656971,6.885607,
270,Ceypetco,fuel,79.8630289,6.8911921,
271,"Cargills Food City\, Mount Lavinia.",supermarket,79.8671266,6.8329646,
272,P & A,supermarket,79.8613759,6.882557,
273,Muslim Ladies College,school,79.8612876,6.8817635,Yes
274,traffic_signals,traffic_signals,79.8645001,6.9118591,
275,traffic_signals,traffic_signals,79.8646942,6.9117769,
276,traffic_signals,traffic_signals,79.8646909,6.9116337,
277,Nippon Hotel,hotel,79.85229,6.9240275,
278,KFC,fast_food,79.8659509,6.8739621,
279,level_crossing,level_crossing,79.8784788,6.8915285,
280,Kingsbury Hotel,hotel,79.842233,6.9327584,
281,Kotte Rajamaha Viharaya,place_of_worship,79.9043667,6.8814277,Yes
282,Gangaramaya,place_of_worship,79.856683,6.9170006,Yes
283,traffic_signals,traffic_signals,79.8713109,6.9212645,
284,Rainbow Kids,kindergarten,80.2208453,6.0566712,
285,crossing,crossing,79.9123031,6.7106508,
286,Club Palm Bay Hotel,hotel,79.8120156,7.4333441,
287,Galle Face Hotel,hotel,79.846261,6.9203009,
288,level_crossing,level_crossing,79.8677253,6.8150988,
289,level_crossing,level_crossing,79.8785274,7.1434757,
290,level_crossing,level_crossing,79.8816596,7.1318075,
291,Seeduwa,station,79.8825586,7.1286696,
292,Kudahakapola,station,79.8897989,7.1038403,
293,level_crossing,level_crossing,79.894558,7.0687222,
294,level_crossing,level_crossing,79.8983325,7.057767,
295,Kandana,station,79.9016886,7.0492586,
296,level_crossing,level_crossing,79.9072614,7.0423919,
297,Enderamulla,station,79.9067801,7.0002833,
298,Hunupitiya,station,79.9002914,6.9876339,
299,Wanawasala,station,79.899258,6.9755695,
300,level_crossing,level_crossing,80.1787575,6.061411,
301,Gangasiri,supermarket,80.2176063,6.0653024,
302,Helmut Kohl Maternity Hospital,hospital,80.2237115,6.0678354,Yes
303,"University of Ruhuna\, Faculty of Medicine",university,80.2265405,6.0684029,
304,Galle,police,80.2171252,6.0330053,
305,school,school,80.2185137,6.0717718,Yes
306,Manjari,supermarket,80.2156117,6.0393912,
307,Dickson,car,80.2186852,6.0537346,
308,Galle Lighthouse,survey_point,80.219368,6.0245531,
309,level_crossing,level_crossing,79.8366583,8.0146862,
310,Siridhamma School,school,80.2323434,6.071661,Yes
311,Abeywikrama,supermarket,80.2160038,6.0646541,
312,Advanced Technical Institute - Labuduwa,college,80.2335364,6.0743239,Yes
313,CPC,fuel,79.9941076,6.8398005,
314,Cargills,supermarket,80.2280393,6.0680497,
315,HNB,bank,80.2277657,6.0676656,
316,school,school,80.1926172,6.0801615,Yes
317,Co-op Hospital,hospital,80.2160659,6.0363733,Yes
318,Hemas Southern Hospital,hospital,80.2162564,6.0358826,Yes
319,St. Francois Xavier Church,place_of_worship,80.2064079,6.0605829,Yes
320,Vidyaloka College,school,80.2168106,6.0344051,Yes
321,level_crossing,level_crossing,80.2996045,5.9945512,
322,level_crossing,level_crossing,80.3129618,5.993155,
323,level_crossing,level_crossing,80.3146639,5.99269,
324,level_crossing,level_crossing,80.318172,5.9917084,
325,level_crossing,level_crossing,80.3270396,5.9878307,
326,level_crossing,level_crossing,80.3307945,5.9863531,
327,level_crossing,level_crossing,79.997684,6.4254737,
328,Habaraduwa,station,80.307297,5.9940809,
329,HNB,bank,80.2167442,6.0333377,
330,Sampath Bank,bank,80.2167957,6.0335084,
331,Commercial Bank of Ceylon PLC,bank,80.2199629,6.0353008,
332,Sea Fair Food City,supermarket,80.2380388,6.0331755,
333,St. Sebastian Church,place_of_worship,79.839113,7.2183788,Yes
334,level_crossing,level_crossing,79.8478328,7.2371356,
335,level_crossing,level_crossing,79.8467708,7.2240842,
336,level_crossing,level_crossing,79.8427248,7.2121133,
337,level_crossing,level_crossing,79.8656566,7.1828191,
338,Katunayake South - EPZ,station,79.8753227,7.1581478,
339,level_crossing,level_crossing,79.8543479,7.198843,
340,Negombo,station,79.8421133,7.2103967,
341,level_crossing,level_crossing,79.8410148,7.2070858,
342,level_crossing,level_crossing,79.8618099,7.1917696,
343,level_crossing,level_crossing,79.8454709,7.2198534,
344,level_crossing,level_crossing,79.8576849,7.2651052,
345, ,mini_roundabout,79.8622026,6.9474151,
346, ,mini_roundabout,79.8572003,6.9501788,
347,level_crossing,level_crossing,79.9123123,6.8620849,
348,Open University of Sri Lanka,university,79.8866979,6.883029,
349,Maharagama Post Office,post_office,79.9257948,6.8465145,
350,Aqua Pearl Lake Resort,hotel,79.9096066,6.7636916,
351,traffic_signals,traffic_signals,79.8678586,6.830496,
352,Watagodde,station,80.6529761,6.9688444,
353,level_crossing,level_crossing,80.7049757,6.9514518,
354,crossing,crossing,80.7169537,6.9449235,
355,Hatton,station,80.5978654,6.8931154,
356,Avani Hotel,hotel,79.9602525,6.5683248,
357,level_crossing,level_crossing,79.9661215,6.5587882,
358,Gampola,station,80.5669282,7.1621736,
359,Bujjomuwa,station,80.2107055,7.2732761,
360,Yaththalgoda,station,80.1944429,7.270441,
361,Ambepussa,station,80.1693505,7.2560015,
362,Botale,station,80.1532119,7.2567498,
363,Wijayarajadahana,station,80.1179839,7.2300015,
364,Ganegoda,station,80.1055059,7.2129848,
365,level_crossing,level_crossing,80.1042133,7.212088,
366,Magalegoda,station,80.0364267,7.1338951,
367,Daraluwa,station,80.0105664,7.1071183,
368,Batuwatta,station,79.9371429,7.0550935,
369,crossing,crossing,80.5720044,7.2674706,
370,st. Michelle,hotel,79.9127379,6.7774418,
371,level_crossing,level_crossing,80.5350416,5.9500774,
372, ,mini_roundabout,79.8541982,6.939068,
373,crossing,crossing,80.0029136,6.9345341,
374,crossing,crossing,80.0100452,6.929852,
375,crossing,crossing,80.0340433,6.919713,
376,traffic_signals,traffic_signals,79.8777072,6.9213301,
377, ,turning_circle,79.859609,7.2031473,
378, ,mini_roundabout,80.2692625,7.0729946,
379,Matugama Central Bus Stand,bus_stop,80.1147637,6.5222775,
380,Athulathmudali Maha vidyalaya,school,80.1116326,6.5219377,Yes
381,Nabada bus stop,bus_stop,80.0879229,6.5930464,
382,St. Johns College,school,79.9142091,6.7229739,Yes
383,Town Hall,bus_stop,79.9076091,6.7200733,
384,place_of_worship,place_of_worship,79.9055569,6.7261289,Yes
385,Gangula Temple,place_of_worship,79.914715,6.7246287,Yes
386,Panadura Post Office,post_office,79.9078907,6.7171964,
387, ,bus_stop,79.9078743,6.7121494,
388,Panadura Balika Vidyalaya,school,79.908312,6.7133598,Yes
389,SLTB Bus Station,bus_station,79.9080546,6.7144935,
390,Rankoth Vihara Temple,place_of_worship,79.9063301,6.7117902,Yes
391,Club Palm Garden Hotel,hotel,79.9860322,6.4461509,
392,crossing,crossing,80.6507332,7.8737937,
393,The Grand Tourist Hooliday Resort,hotel,80.7086484,7.9348232,
394,Shalini Tourist Rest,hotel,80.4161576,8.3316061,
395,Awukana Vtharaya,place_of_worship,80.5134623,8.0101332,Yes
396,Mihintale,parking,80.5137627,8.3537754,
397,Mihintale,place_of_worship,80.5158532,8.3533877,Yes
398,Samadhi Buddha Statue,place_of_worship,80.398162,8.3698838,Yes
399,Jetavanarama Dagoba,place_of_worship,80.4036518,8.3515812,Yes
400,Tissawewa Rest House,hotel,80.3899106,8.3422895,
401,Mirisavatiya Dagoba,place_of_worship,80.389108,8.3450226,Yes
402,Motorcycle repair shop,motorcycle,80.4088964,8.332328,
403, ,parking,80.4029998,8.3449486,
404,Isurumuni Viharaya,place_of_worship,80.3903278,8.3344744,Yes
405,Kuttam Pokuna,attraction,80.4016952,8.3709074,
406,Sri Maha Bodhi,place_of_worship,80.3972199,8.3447706,Yes
407,Shiva Devale,attraction,81.0066337,7.9510256,
408,Rankoth Viharaya,place_of_worship,81.0033944,7.9582164,Yes
409,Gal Viharaya,place_of_worship,81.0049395,7.9660749,Yes
410,Lotus Pond,attraction,81.004021,7.9748514,
411,Tivanka Image House,attraction,81.0060809,7.9786339,
412,Potgul Viharaya,place_of_worship,80.9947084,7.9245534,Yes
413,Maha Parakrama Statue,attraction,80.9948692,7.9262515,
414,Polonnaruwa Quadrangle,attraction,81.0014633,7.9476332,
415,Bathing Pool,attraction,81.0024503,7.9422268,
416,Royal Palace of King Parakramabahu,attraction,81.0005204,7.9423735,
417,Archaeological Museum,museum,80.9987853,7.9418018,
418,Devi Tourist Home,hotel,81.0035163,7.9335352,
419,Spica Holiday Home,hotel,80.6291918,7.3027428,
420,level_crossing,level_crossing,80.6356339,7.2983459,
421,hotel,hotel,80.9778532,6.7640383,
422,Hill Top Guesthouse,hotel,81.0483298,6.8717433,
423,Lipton's seat,viewpoint,81.0155315,6.780575,
424,hotel,hotel,79.8634557,6.8425623,
425,traffic_signals,traffic_signals,79.8829985,6.8097847,
426,Deepangoda Sri Medhananda MV,school,79.9820128,6.816558,Yes
427,Homagama Central Bus Stand,bus_stop,80.002056,6.8414,
428,Sri Sugathabimbaramaya,place_of_worship,80.0033127,6.8448168,Yes
429,President's College Homagama,school,80.0035762,6.8396183,Yes
430,Kottawa Dharmapala MV,school,79.9651885,6.8380737,Yes
431,Niyandagala Kanishta Vidyalaya,school,79.9894893,6.826409,Yes
432,Lekha Cinema,cinema,80.0030468,6.843094,
433,level_crossing,level_crossing,79.9921228,6.8458191,
434,Sri Wijayatilakaramaya,place_of_worship,79.9637522,6.8325182,Yes
435,place_of_worship,place_of_worship,79.9918832,6.8221104,Yes
436,Sri Wardhanaramaya,place_of_worship,79.9825652,6.8139023,Yes
437,mini Co-op Super,convenience,79.9806571,6.8197508,
438,"Government Dispensary\, Brahmanagama",pharmacy,79.9805879,6.8199958,
439,Makumbura Purana Viharaya,place_of_worship,79.9808004,6.8375568,Yes
440,Mattegoda Vidyadeepa MV,school,79.966435,6.8295514,Yes
441,Kande Purana Viharaya,place_of_worship,79.9766107,6.8264621,Yes
442,Deepangoda KV,school,79.9825282,6.8144563,Yes
443, ,fuel,79.9524167,6.8455675,
444,Lanka IOC,fuel,79.9404692,6.8449727,
445,IOC Filling Station,fuel,79.9660324,6.8411245,
446,Kurunduwaththa,police,79.8638584,6.9069078,
447,Lionel Wendt,theatre,79.8606719,6.90678,
448,Visakha Vidyalaya,school,79.8597128,6.8913335,Yes
449,Bodhiwardhanaramaya (Army camp temple),place_of_worship,80.0180435,6.8455831,Yes
450,Hilltop,hotel,80.0096997,6.8445658,
451,Homagama,police,80.0031149,6.8367575,
452,Mattegoda,bus_stop,79.9752145,6.8114091,
453,"Ananda Vidyalaya\,  Kottawa",school,79.959109,6.8447628,Yes
454,Dharmapala Vidyalaya,school,79.9584867,6.8655244,Yes
455,Ruwanweliseya,place_of_worship,80.3964367,8.3500555,Yes
456,Dumbulla Rest House,hotel,80.6524954,7.8602453,
457,World's End (plate 1),viewpoint,80.7943043,6.7804058,
458,Pattipola,station,80.8306671,6.8558983,
459,New Brown`s Rest,hotel,80.5554106,5.9429462,
460,Devinuwara Light House,lighthouse,80.5940562,5.9212394,
461,Paradise Beach,hotel,80.4574096,5.9451679,
462,Keells Super,supermarket,79.8559888,6.9214572,
463,Regal Cinema,cinema,79.8467606,6.9314743,
464,NTB Head Office,bank,79.8568591,6.9206501,
465,traffic_signals,traffic_signals,79.8577836,6.9204263,
466,HNB Thalangam,bank,79.9299869,6.907695,
467,KFC Pelawatta,restaurant,79.9293473,6.8895352,
468,Flower Drum,restaurant,79.9289611,6.8902169,
469,Perera & Sons,cafe,79.9290362,6.8900997,
470,Pelawatta Bus Stop,bus_stop,79.9288522,6.8910604,
471,Food City Pelawatta,supermarket,79.9302396,6.8889396,
472, ,supermarket,79.9287374,6.8916877,
473,Laufgh Pelawatta,supermarket,79.9281818,6.8911571,
474,Vidya Wardana,school,79.9325565,6.8899538,Yes
475,Arpico Super Centre,supermarket,79.917095,6.9022421,
476,"Battara\,ulla Post Office",post_office,79.9164852,6.9025838,
477,Thalangama Polica,police,79.9293969,6.909463,
478,Thalangama Hospital,hospital,79.9285198,6.9062331,Yes
479,Sakura Hospital,hospital,79.9096982,6.9035135,Yes
480,SLT Battaramulla,telephone,79.91582,6.9019975,
481,Economic Shops & Groceries,supermarket,79.8825502,6.8938643,
482,Pannipitiya Nursing Home,hospital,79.9521742,6.8467443,Yes
483,Ceypetco,fuel,79.9288335,6.8913641,
484,Seylan bank Nawala,bank,79.883922,6.8872978,
485,N S B Thalawathugoda,bank,79.9349892,6.8761803,
486,Keels Thalawathugoda,supermarket,79.9342784,6.8749608,
487,Pizza Hut,restaurant,79.9340505,6.8747769,
488, ,fuel,79.9374033,6.8735707,
489,Laufg Supermarket,supermarket,79.9351017,6.8766364,
490,level_crossing,level_crossing,80.1288977,7.2475514,
491, ,fuel,79.9249926,6.8483333,
492,President's College,school,79.9296221,6.8443786,Yes
493,Vidyakara Vidyalaya,school,79.9259102,6.8451111,Yes
494,traffic_signals,traffic_signals,79.8601311,6.9149006,
495, ,mini_roundabout,79.8468939,6.9339447,
496,Ananda College,school,79.8684624,6.9243372,Yes
497,traffic_signals,traffic_signals,79.8654587,6.9272253,
498,traffic_signals,traffic_signals,79.8880487,6.9104227,
499,traffic_signals,traffic_signals,79.8878408,6.9105118,
500,Rajagiriya Filling Station,fuel,79.8986197,6.9086373,
501,Cargills Food City,supermarket,79.8919082,6.9326251,
502,level_crossing,level_crossing,79.8763956,6.9309182,
503,traffic_signals,traffic_signals,79.8712314,6.9212165,
504,traffic_signals,traffic_signals,79.8778464,6.9213339,
505, ,parking,79.8716564,6.9211351,
506,traffic_signals,traffic_signals,79.8755924,6.9166814,
507,traffic_signals,traffic_signals,79.875693,6.9167388,
508,Weluwana Vidyalaya,school,79.8798243,6.926872,Yes
509,Seewali Vidyalaya,school,79.8805968,6.9235384,Yes
510,KFC,restaurant,79.8574812,6.9203412,
511,Bank of Ceylon Union Place,bank,79.8573096,6.9204264,
512,Ramada Colombo,hotel,79.8476483,6.9211657,
513,Seylan Townhall,bank,79.8645946,6.9167839,
514,Seylan Bank Borella,bank,79.8760906,6.9165409,
515,Sampath borella,bank,79.875758,6.9163598,
516,Welikada Plaza,convenience,79.8957888,6.9093197,
517, ,parking,79.8956171,6.9091492,
518,Dawatagaha Mosque,place_of_worship,79.8646374,6.9163365,Yes
519,HNB Rajagiriya,bank,79.8956602,6.9098735,
520,Western Infermary,hospital,79.8856769,6.91191,Yes
521,Prima,restaurant,79.890902,6.908572,
522,Senkada,fast_food,79.9174852,6.8940023,
523,Dambulla General Provincial Hospital,hospital,80.6507115,7.872514,Yes
524,traffic_signals,traffic_signals,79.845107,6.9362096,
525,Medawachchiya Hospital,hospital,80.4897214,8.5410891,Yes
526,level_crossing,level_crossing,79.8490246,6.9200707,
527, ,fuel,79.8530609,6.9205684,
528,Lanka IOC Horton Place,fuel,79.8648305,6.911462,
529, ,fuel,79.8650112,6.9155085,
530, ,fuel,79.8588223,6.9196631,
531,Lanka IOC,fuel,79.8772462,6.9114966,
532,Commercial Thalawathugoda,bank,79.935075,6.8760097,
533,HNB thalawathugoda,bank,79.9360596,6.8756221,
534,Cargills Koswatta,supermarket,79.9293387,6.9077912,
535,Perera & Sons,fast_food,79.9353516,6.876967,
536,Nugegoda Supermarket,supermarket,79.8914461,6.8729723,
537, ,parking,79.9349159,6.8755401,
538,Kirullapone,police,79.874001,6.8784666,
539,Kohuwala,police,79.8844294,6.8671351,
540,Commercial Bank Nugegoda,bank,79.8918809,6.8745931,
541, ,fuel,79.9053636,6.9042824,
542,King Joy,restaurant,79.9051088,6.9050328,
543,Dinemor Rjagiriya,fast_food,79.9036919,6.9064088,
544,Sirikodiya,fast_food,79.9277743,6.8933649,
545,Sampath Pelawatta,bank,79.9291553,6.8898675,
546,Bank of Ceylon,bank,79.9285501,6.8912956,
547,Grate Wall,restaurant,79.9283832,6.8911758,
548,Welikada,police,79.8950272,6.9087637,
549,Borella,police,79.8782626,6.9148801,
550, ,cinema,79.8783591,6.9139215,
551,Lido Ce=jnema Borella,cinema,79.8788067,6.9143141,
552,Impala,cinema,79.8908365,6.9111695,
553,Borella,bus_stop,79.8779836,6.914944,
554,Amrith (Indian),restaurant,79.8622285,6.8920273,
555,Xelatan (Chinese),restaurant,79.8619817,6.8925492,
556, ,fuel,79.8695039,6.8825418,
557,Seylan Bank,bank,79.8635487,6.8905624,
558,Commercial Bank,bank,79.8599119,6.8978477,
559,HSBC,bank,79.8569498,6.8962452,
560,HNB Bambalapitiya,bank,79.8578941,6.8864566,
561, ,fuel,79.8576713,6.8870657,
562,Savoy,cinema,79.8596482,6.8792338,
563, ,fuel,79.8776544,6.9134517,
564,IOC,fuel,79.8777821,6.9294751,
565,traffic_signals,traffic_signals,79.878336,6.9400541,
566,traffic_signals,traffic_signals,79.8782068,6.9401552,
567, ,fuel,79.8658346,6.9347198,
568,Dematagoda,station,79.8790756,6.9374871,
569,John De Silva,theatre,79.8647914,6.9304173,
570,Tower Hall,theatre,79.8648089,6.9306812,
571,CEYPETCO - EAP Edirisinghe,fuel,79.8779963,6.9398327,
572,traffic_signals,traffic_signals,79.8642441,6.9285856,
573,bank,bank,79.8609811,6.9320917,
574,Central Bus Station,bus_station,79.8548482,6.9346787,
575,Gunasinghepura Bus Stop,bus_stop,79.8556206,6.9371283,
576,Fort Bus Stop,bus_stop,79.8508705,6.934019,
577,People's Bank,bank,79.8477781,6.9301187,
578,traffic_signals,traffic_signals,79.8679564,6.9247075,
579,traffic_signals,traffic_signals,79.8678789,6.9246338,
580,traffic_signals,traffic_signals,79.8647,6.9230197,
581, ,post_office,79.8709201,6.9213534,
582,Borella,post_office,79.8769497,6.9156553,
583,Sampath Borella,bank,79.8785698,6.9139085,
584,NTB Battaramulla,bank,79.9208259,6.9007763,
585, ,pharmacy,79.8994881,6.9080455,
586,Pizza Hut,fast_food,79.8991596,6.9082934,
587,ODEL,clothes,79.8652116,6.9167601,
588,traffic_signals,traffic_signals,79.8638829,6.9174635,
589,traffic_signals,traffic_signals,79.864068,6.9172264,
590,traffic_signals,traffic_signals,79.8638462,6.917137,
591,traffic_signals,traffic_signals,79.8637528,6.9172279,
592,traffic_signals,traffic_signals,79.8643906,6.917396,
593,traffic_signals,traffic_signals,79.8648842,6.9173838,
594,traffic_signals,traffic_signals,79.8649025,6.9172846,
595,traffic_signals,traffic_signals,79.8648601,6.9171988,
596,traffic_signals,traffic_signals,79.8646657,6.9172046,
597,Abans Electronics,hifi,79.8885562,6.9100338,
598,Baristar,cafe,79.9001685,6.9077601,
599,Colombo General Hospital,hospital,79.8655358,6.9173991,Yes
600,Coffee Bean,cafe,79.9259928,6.8936687,
601,Malaysian Food,fast_food,79.9280399,6.893261,
602,Athurugiriya,bus_stop,79.9897408,6.8771492,
603,Keels Supermarket,supermarket,79.9892143,6.8775157,
604,Buwanekaba Vidyalaya,school,79.9247442,6.8489651,Yes
605,Manel,restaurant,79.9216775,6.8506796,
606,HNB,bank,79.9230267,6.8497607,
607,Nawinna Medicare Hospital,hospital,79.9139018,6.8548765,Yes
608,level_crossing,level_crossing,79.9146406,6.8582477,
609,People's Bank,bank,79.9078356,6.8587013,
610,Udahamulla Depot,bus_stop,79.911971,6.8651121,
611,level_crossing,level_crossing,79.9104442,6.8625167,
612,Sri Naga Viharaya,place_of_worship,79.8998662,6.881071,Yes
613,Nugegoda,police,79.889618,6.8718882,
614,Central Hospital,hospital,79.8658457,6.9204339,Yes
615,Barista Horton Place,cafe,79.8673668,6.9117428,
616,Independence Square,monument,79.8675663,6.9046368,
617,Ladies College,school,79.8579211,6.9078747,Yes
618,Cafe on the 5th,cafe,79.8571033,6.9053381,
619,Mahanama College,school,79.8538312,6.9054542,Yes
620,Liberty Plaza,supermarket,79.8511941,6.9118581,
621, ,parking,79.851339,6.9112346,
622,Majestic City Shopping Mall,convenience,79.8550919,6.8940059,
623,Unity Plaza IT Mall,hifi,79.8553118,6.8936314,
624, ,parking,79.8543996,6.8936647,
625,Pizza Hut,restaurant,79.8547321,6.8935448,
626,KFC,restaurant,79.8545846,6.8937047,
627,Bally's Club,bar,79.8499189,6.9115132,
628,Crescat Boulevard,convenience,79.8486302,6.9170671,
629,Ashokaramaya,place_of_worship,79.8647445,6.8906412,Yes
630,Global Towers Hotel & Apartment,hotel,79.8571524,6.8774865,
631,Kinross Swimming Club,swimming_pool,79.8566807,6.8773601,
632,Roxy,cinema,79.8629187,6.8654518,
633,PABC,bank,79.8762298,6.8782036,
634,HNB Nugegoda,bank,79.8887211,6.8698083,
635, ,fuel,79.8894728,6.8695047,
636,Gihans,restaurant,79.896774,6.8649069,
637, ,fuel,79.8844106,6.8667176,
638,BOC Nugegoda,bank,79.8885072,6.8699309,
639,Dharmaramaya,place_of_worship,79.8611113,6.8798086,Yes
640, ,fuel,79.849687,6.9278477,
641,Union Chemist,pharmacy,79.8635143,6.9174488,
642,Hayleys,pharmacy,79.8640312,6.9175952,
643,Salaka,cafe,79.8632354,6.917558,
644, ,telephone,79.8633534,6.9175047,
645, ,post_box,79.8635621,6.9166972,
646,Peoples Bank,bank,79.8632296,6.9164951,
647,SPC Rajya Osu Sala,pharmacy,79.8635977,6.9172062,
648,Sumanadisi,cafe,79.8849501,6.8670803,
649,Perera & Sons,cafe,79.8873712,6.8688294,
650, ,fuel,79.9518155,6.9046177,
651,Fab,restaurant,79.9515956,6.9045964,
652,Abans Electronics,convenience,79.9554913,6.9030638,
653,B O C Malabe,bank,79.9560473,6.9022256,
654,Sampath Bank Malabe,bank,79.9557792,6.9027241,
655,Cargills,supermarket,79.9540831,6.9040318,
656,Keels Super Malabe,supermarket,79.955818,6.9040068,
657,Sri Rahula Balika Maha Vidyalaya,school,79.9561321,6.9036373,Yes
658,Seylan Bank Malabe,bank,79.9552607,6.9036549,
659,H N B Malabe,bank,79.9573722,6.9033168,
660,Fab,cafe,79.8871496,6.910736,
661,Malabe,bus_stop,79.9544157,6.9039253,
662,NDB Pelawatta,bank,79.9290427,6.8917874,
663, ,pharmacy,79.9290301,6.8918994,
664,Mayurapada,place_of_worship,79.927807,6.8920885,Yes
665,Kelaniya Rajamaha Viharaya,place_of_worship,79.9186189,6.9518244,Yes
666, ,mini_roundabout,79.9961392,6.9615285,
667,level_crossing,level_crossing,79.894824,6.9614356,
668,Kolonnawa Rajamaha Viharaya,place_of_worship,79.8879755,6.9331155,Yes
669,President's College,school,79.9102461,6.9514782,Yes
670,Bollagal Maha Vidyalaya,school,79.9481511,6.9443959,Yes
671,Mulleriyawa Hospital,hospital,79.942918,6.9247709,Yes
672,Vidyalankara Pirivena,place_of_worship,79.898726,6.965972,Yes
673,Wedamulla Vidyalaya,school,79.9012554,6.9671653,Yes
674,Kelaniya,university,79.9166298,6.971915,
675,traffic_signals,traffic_signals,79.9169977,6.9721967,
676,Hemas Hospital,hospital,79.8917469,6.9891563,Yes
677,Nayakakanda Convent,school,79.8834348,6.9942039,Yes
678,Lyceum Int. School,school,79.8871362,6.9874098,Yes
679,Keels,supermarket,79.8911354,6.988677,
680,Hekitta Mental,hospital,79.8768982,6.98282,Yes
681,Leprosy Hospital,hospital,79.8755142,6.9828093,Yes
682,bank,bank,79.8769346,6.8964177,
683,AAT,college,79.8769024,6.8966414,Yes
684,place_of_worship,place_of_worship,79.8762131,6.8963059,Yes
685,Narahenpita,bus_stop,79.8763745,6.8920943,
686,Police Hospital,hospital,79.8773611,6.8917898,Yes
687,Lumbini,theatre,79.8670936,6.8841634,
688,Nations trust bank,bank,79.8870233,6.8856549,
689,Siddhalepa,hospital,79.8773217,6.8311854,Yes
690,Mount Lavinia Poice Station,police,79.8702201,6.8249459,
691,"Keells Super\, Mount Lavinia.",supermarket,79.8673414,6.8318562,
692,Mount Lavinia,bus_stop,79.8672365,6.8335291,
693, ,parking,79.8632128,6.8335607,
694,Golden Mile,restaurant,79.863267,6.8383066,
695,Berjaya Mount Royal Beach Hotel,hotel,79.8635346,6.8386792,
696,Presbyterian Girls School,school,79.8633844,6.850498,Yes
697,Family Super,supermarket,79.8671234,6.8418723,
698, ,fuel,79.8669249,6.8423703,
699,Arpico Super Center,supermarket,79.8663483,6.8466605,
700,Dehiwala,post_box,79.8642512,6.8512255,
701,Dehiwela,police,79.8717958,6.8500932,
702,Sri Subodharama Raja Maha Viharaya,place_of_worship,79.8683572,6.84902,Yes
703,NOLIMIT Glitz,clothes,79.8664261,6.8453237,
704,Pizza Hut,restaurant,79.8653746,6.8565511,
705,St. Mary's College,school,79.8657984,6.8600104,Yes
706,American College,college,79.8646671,6.8627911,Yes
707,Shanmugas Indian,restaurant,79.8603213,6.8648597,
708, ,fuel,79.8628373,6.8662205,
709,New Delmon Hospital,hospital,79.8618454,6.8708278,Yes
710,Wellawatte,police,79.8614264,6.8732959,
711,BOC,bank,79.8636345,6.8903734,
712,People's Bank Thimbirigasyaya,bank,79.863739,6.8908128,
713,Perera & Sons,cafe,79.8613728,6.8949824,
714,Sirimavo Bandaranayake,school,79.8636526,6.8950117,Yes
715,NSB,bank,79.8595435,6.8799399,
716,Queens Cafe,cafe,79.8559974,6.8990067,
717,McDonald's,fast_food,79.8519613,6.9034913,
718,NSB Kollupitiya,bank,79.8500378,6.9109881,
719,HNB Kohuwala,bank,79.8844828,6.867657,
720,HSBC Kohuwala,bank,79.8805884,6.8696064,
721,Pepiliyana Sunethra Devi Pirivena,place_of_worship,79.8907051,6.856485,Yes
722,Bellanwila Raja Maha Viharaya,place_of_worship,79.8899944,6.8453675,Yes
723, ,parking,79.889911,6.8446382,
724,Maligawatta Rajamaha Viharaya,place_of_worship,79.8858531,6.8373462,Yes
725,Sampath Bank (Head Office),bank,79.8534149,6.919862,
726, ,parking,79.850014,6.9198806,
727,HNB Nawam Mawatha,bank,79.8499767,6.9190752,
728,HSBC Nawam Mawatha,bank,79.8502073,6.9191472,
729,Sampath Bank (Nawam Mawatha),bank,79.8502368,6.9192084,
730, ,parking,79.8640877,6.9169849,
731,S G T C,convenience,79.8527901,6.919191,
732, ,parking,79.8571245,6.9204797,
733, ,post_box,79.9354774,6.8753123,
734,Cargills,supermarket,79.9017762,6.8834777,
735,Laugfs,supermarket,79.902066,6.8836484,
736,Mirihana,police,79.9020231,6.8743483,
737, ,fuel,79.9085895,6.8574731,
738,Cargills Pepiliyana,supermarket,79.8902875,6.8590095,
739,school,school,79.9597468,6.8813645,Yes
740,Fire Brigade,fire_station,79.8622669,6.9230681,Yes
741,traffic_signals,traffic_signals,79.864855,6.930097,
742,Libery,cinema,79.8510496,6.9122641,
743,Asiri Surgical Hospital Car Park,parking,79.8802268,6.8946384,
744,Vidura,college,79.888387,6.8950499,Yes
745,HSBC Pelawatta,bank,79.9291071,6.8899952,
746,Harcourts,pharmacy,79.8845316,6.9111324,
747,Ranpokunagama Maha Vidyalaya,school,80.1064131,7.1325742,Yes
748,Ranpokunagama Viharaya,place_of_worship,80.1073055,7.1332771,Yes
749,Nittambuwa New Bus Stand,bus_stop,80.0965319,7.1418997,
750, ,lighthouse,80.8175137,9.2733432,
751,Nittambuwa Old Bus Stand,bus_stop,80.0954259,7.139915,
752,level_crossing,level_crossing,80.0594514,7.1540865,
753,Veyangoda,station,80.0586539,7.1528764,
754,Ganemulla,station,79.9607237,7.0685046,
755,traffic_signals,traffic_signals,79.8448074,6.9343414,
756,traffic_signals,traffic_signals,79.8774515,6.9112625,
757,traffic_signals,traffic_signals,79.8637472,6.8624421,
758, ,mini_roundabout,79.8528292,6.923846,
759,traffic_signals,traffic_signals,79.8882274,6.8697938,
760,traffic_signals,traffic_signals,79.8883159,6.869911,
761,Foul Point,lighthouse,81.3191134,8.5198023,
762,level_crossing,level_crossing,79.9741617,7.0750282,
763,Yagoda,station,79.9738685,7.0747519,
764,Siddhartha Vidyalaya,school,79.9160249,6.8676383,Yes
765,Crystal,supermarket,79.8642219,6.8599974,
766,traffic_signals,traffic_signals,79.8629755,6.8660262,
767,Holy Family Convent,school,79.8570592,6.8881108,Yes
768,Palaya Kathiresan Kovil,place_of_worship,79.8574707,6.8908657,Yes
769,Vajiraramya Buddhis Temple,place_of_worship,79.8578569,6.8904823,Yes
770,traffic_signals,traffic_signals,79.8770146,6.8969347,
771,Nations Trust Bank,bank,79.8639321,6.9090076,
772,traffic_signals,traffic_signals,79.8644426,6.9115866,
773,Horape,station,79.9182194,7.0164609,
774,Wathupitiwala Hospital,hospital,80.1045427,7.1236043,Yes
775,Kochchikade,station,79.8572341,7.2641298,
776, ,mini_roundabout,79.8349004,7.2083215,
777,Negombo Central Super Market,supermarket,79.8404418,7.2090206,
778,Waikkala,station,79.860317,7.2774682,
779,level_crossing,level_crossing,79.8607328,7.2959323,
780,Bolawatta,station,79.8610081,7.2970124,
781,Katunayake,station,79.8720061,7.1675414,
782,level_crossing,level_crossing,79.9023476,6.8648924,
783,Cargills,supermarket,79.926325,6.8452764,
784,Arawwala Junior School,school,79.9459838,6.8388049,Yes
785,Vidyaloka Maha Vidyalaya,school,79.9346863,6.8291217,Yes
786,FAB,cafe,79.8872896,6.8704975,
787,Ananda Balika Vidyalaya,school,79.8974847,6.8851514,Yes
788,Isipathanarama Temple,place_of_worship,79.8655637,6.8883975,Yes
789,Mathura Indian,restaurant,79.8677336,6.884736,
790,Kinjou,restaurant,79.8664105,6.885165,
791,Suvisuddharama Rd,place_of_worship,79.8683398,6.8796659,Yes
792, ,cinema,79.8708826,6.8741697,
793,Buddhagosha College,school,79.8715531,6.8654991,Yes
794,St. Lawrance Church,place_of_worship,79.8633023,6.8707257,Yes
795,punchi Theatre,theatre,79.8791071,6.9141916,
796,Bandaranayake School,school,79.8869177,6.9117792,Yes
797,British School,school,79.8775192,6.9061448,Yes
798,Bandaranayake Memorial Int. Conference Hall (BMI,theatre,79.871614,6.9035863,
799,Asiri Hospital - Car Park,parking,79.8741839,6.8931186,
800,D S Senanayake,school,79.8762503,6.9081534,Yes
801,traffic_signals,traffic_signals,79.8646329,6.917355,
802,traffic_signals,traffic_signals,79.8637571,6.9173716,
803,HNB,bank,79.8633715,6.9169798,
804,Church,place_of_worship,79.8643131,6.9169798,Yes
805, ,fuel,80.2277813,6.0679401,
806, ,parking,80.2248997,6.0469288,
807,House of Hidayath,supermarket,80.2250416,6.0466641,
808,Khalid's Guest House,hotel,80.2158686,6.0259547,
809,traffic_signals,traffic_signals,79.8877789,6.9112556,
810,Thudella,station,79.8911012,7.0922875,
811,level_crossing,level_crossing,79.8907696,7.0954693,
812,Chalmer's Granary,parking,79.8487858,6.9368271,
813, ,mini_roundabout,79.8853975,6.7715571,
814, ,turning_circle,79.9099652,6.7147029,
815,crossing,crossing,79.90746,6.7104656,
816,Galgoda Temple,place_of_worship,79.9101961,6.7148291,Yes
817,Lyceum College,school,79.9048746,6.7258572,Yes
818,Rathmalana,station,79.8667046,6.8151758,
819,Angulana,station,79.8725429,6.7990016,
820,German Tec,school,79.887687,6.8035952,Yes
821,Cargills Big City,supermarket,79.8883716,6.802066,
822,bank,bank,79.8696089,6.8256683,
823,Girls High School,school,79.8649848,6.8346059,Yes
824,traffic_signals,traffic_signals,79.8816451,6.9109773,
825,Lady Ridgeway Hospital -OPD,hospital,79.8772844,6.9174037,Yes
826,Sri Jinendraramaya,place_of_worship,80.2298394,6.0500595,Yes
827,Kalegana Piyatissa Vidyalaya,school,80.2014832,6.0579225,Yes
828, ,parking,79.8573358,6.9144755,
829,DFCC Vardhana Bank,bank,79.8568852,6.914329,
830, ,parking,79.8632686,6.9210804,
831,HNB Tower,bank,79.8631345,6.9210883,
832,All Saints Church,place_of_worship,79.8747404,6.9212854,Yes
833,C.W.W Kannangara Vidyalaya,school,79.8772536,6.9190008,Yes
834,Rathnavalee Balika Vidyalaya,school,79.8744749,6.9183511,Yes
835,St Lukes Church,place_of_worship,79.8748048,6.9180369,Yes
836,Aquinas College,college,79.8753117,6.9168281,Yes
837,All Saints College,school,79.8752903,6.9205026,Yes
838,Peoples Bank,bank,79.8620171,6.9240676,
839,Zahira College,school,79.8648297,6.9277024,Yes
840,Nalanda College,school,79.8736809,6.9234421,Yes
841,Gothami Balika Vidyalaya,school,79.8719965,6.9239214,Yes
842, ,fuel,79.8703014,6.9478207,
843,St Bridgets Convent,school,79.8659291,6.9094635,Yes
844,N I B M,school,79.8708307,6.9063606,Yes
845,Sampath Bank,bank,79.8495402,6.9328687,
846,Peoples Bank,bank,79.8516422,6.9321888,
847,Sulaiman,hospital,79.8658056,6.9420589,Yes
848,St. Josephs College,school,79.8747958,6.9481518,Yes
849,St Josephs Church,place_of_worship,79.873702,6.9489069,Yes
850,anthonie's ChurchSt,place_of_worship,79.8562779,6.9468205,Yes
851, ,cinema,79.8780178,6.9395664,
852, ,cinema,79.8711084,6.9320367,
853,Nawaloka,hospital,79.8534381,6.9208163,Yes
854, ,parking,79.8538363,6.9201059,
855,Wathupitiwala Wine Stores,pub,80.1018563,7.1361749,
856,St.Marries Church,place_of_worship,79.8598729,7.0432385,Yes
857,Pamunugama,police,79.8596146,7.0792924,
858,Bopitiya Central,school,79.8590782,7.0753583,Yes
859,St.Nicolas Church,place_of_worship,79.8604622,7.070402,Yes
860,Don Bosco Palliyawatta,school,79.8698714,6.9868082,Yes
861,Pegasus Hotel,hotel,79.8695925,6.9994965,
862,Lavinia Breeze,restaurant,79.8632381,6.8412447,
863,traffic_signals,traffic_signals,79.8770856,6.9086482,
864,traffic_signals,traffic_signals,79.866856,6.9115636,
865,traffic_signals,traffic_signals,79.8759381,6.9112935,
866,traffic_signals,traffic_signals,79.8709381,6.911436,
867,traffic_signals,traffic_signals,79.8620355,6.9228702,
868, ,parking,79.8632008,6.9294279,
869,National Art Gallery,artwork,79.861969,6.9114097,
870,traffic_signals,traffic_signals,79.8642473,6.9283258,
871,traffic_signals,traffic_signals,79.8636938,6.9282981,
872,Church of Holy Rosary,place_of_worship,79.8521301,6.9232664,Yes
873,Laufgh,supermarket,79.876422,6.9082706,
874,Flower Song,restaurant,80.6363043,7.2975045,
875,Indigolla Temple,place_of_worship,80.0188314,7.0913605,Yes
876,traffic_signals,traffic_signals,79.8637273,6.9169515,
877,level_crossing,level_crossing,79.9435651,6.8470877,
878, ,fuel,79.9392717,6.7964353,
879,Lunawa,station,79.875412,6.7869321,
880,Kolonnawa Water Tank,water_tower,79.8903942,6.9329441,
881,traffic_signals,traffic_signals,79.8775334,6.91126,
882,Walukarama Temple,place_of_worship,79.8559899,6.9058345,Yes
883,British Council,school,79.8569931,6.8999338,Yes
884,Jumma Mosque,place_of_worship,79.8559256,6.8958118,Yes
885,St.Thomas Preparatory School,school,79.8476579,6.9167927,Yes
886,Sea View Hotel,hotel,79.8515739,6.9097418,
887,Fab,cafe,79.8517121,6.904377,
888,Pillawoos,fast_food,79.852958,6.9018495,
889, ,parking,79.8467216,6.917104,
890,ICFAI,university,79.8783864,6.8703856,
891,Colombo South International College,school,79.8802961,6.8664231,Yes
892,KFC,restaurant,79.8853172,6.8712484,
893,Keels,supermarket,79.8850597,6.8713869,
894,Balapokuna Purana Viharaya,place_of_worship,79.8777534,6.8729207,Yes
895,S P M,school,79.8580643,6.8859413,Yes
896,Seylan Bank,bank,79.9634489,6.841889,
897,bank,bank,79.9598499,6.8805579,
898,Ramakrishna Mission,place_of_worship,79.8602094,6.8656695,Yes
899,Omega Inn,hotel,79.862109,6.8691597,
900,Arpico Super Store,supermarket,79.8621949,6.8689786,
901,Commercial Bank of Ceylon PLC,bank,79.8620447,6.8718174,
902,Laufgh Super Wellawatta,supermarket,79.8621198,6.8715244,
903,St. Lawrance Girls School,school,79.8615163,6.8747066,Yes
904,wellawatte Jumma Mosque,place_of_worship,79.8602932,6.8770819,Yes
905,Ramanadan Hindu Ladies College,school,79.8606902,6.8839628,Yes
906,St. Pauls Church,place_of_worship,79.8582225,6.8855179,Yes
907,level_crossing,level_crossing,79.9614032,7.0683821,
908,Food City Park Road,supermarket,79.8730745,6.887853,
909,St. Theresa's Church,place_of_worship,79.8723585,6.8949577,Yes
910,C I M A,college,79.8768801,6.8984057,Yes
911,Wycherly Int.School,school,79.8672375,6.9005918,Yes
912,Sirimavo Bandara Nayake Vidyalaya,school,79.8636621,6.8961263,Yes
913,Mango Tree Indian,restaurant,79.8555582,6.9127061,
914,Union Bank,bank,79.8548777,6.9120486,
915,St Marry's Girl School,school,79.8533097,6.9137171,Yes
916,St. Micheals College,school,79.8527947,6.9136106,Yes
917,Jumma Mosque Kollupitiya,place_of_worship,79.8508635,6.9133017,Yes
918,Pizza Hut Union Place,restaurant,79.8589637,6.9200751,
919,N D B,bank,79.8571951,6.9134758,
920,Sampath Super Branch,bank,79.8576315,6.913675,
921,traffic_signals,traffic_signals,79.8649625,6.9300596,
922,Fort Rail passenger Entranace & Exit,subway_entrance,79.8493704,6.9327308,
923,N T B Nawam Mawatha,bank,79.8507625,6.9192376,
924,White Horse,bar,79.8500303,6.9194507,
925,N D B Nawam Mawatha,bank,79.8510816,6.9187318,
926,Seylan Kalubowila,bank,79.8783191,6.8662933,
927,Seylan Nugegoda,bank,79.8913852,6.8686046,
928,Seafood Restuarent,restaurant,79.8510328,6.9093071,
929,N D B Galle Face,bank,79.8483828,6.9200325,
930,Sampath Bank Nugegoda,bank,79.8900604,6.8725812,
931,Royal Institute Nugegoda,school,79.8933675,6.8723735,Yes
932,Peoples Bank Pitakotte,bank,79.9013919,6.8838759,
933,Sri Jayawardanepura Girl School,school,79.900427,6.8920362,Yes
934, ,fuel,79.8550433,6.9171812,
935,Vision care Private Eye clinic,hospital,79.8653805,6.9170257,Yes
936,H S B C deans Road,bank,79.8643424,6.9179391,
937,Standard  Chartered Bank,bank,79.8637765,6.9177412,
938,Standard Chartered ATM,bank,79.916887,6.9022175,
939,Pizza Hut Malabe,restaurant,79.9557232,6.9040425,
940,Perera & Sons,cafe,79.9550962,6.9040845,
941, ,parking,79.8507519,6.9123334,
942,HSBC Maitland Crescent,bank,79.865062,6.9082033,
943,Technical College,college,79.8594636,6.9321835,Yes
944, ,fuel,79.9293303,6.9065715,
945, ,fuel,79.9341292,6.8445686,
946,Dharmashoka Primary,school,79.9352342,6.8449308,Yes
947,Central College Maharagama,school,79.9352557,6.8432797,Yes
948,N T B Maharagama,bank,79.9239152,6.849309,
949,Commercial Bank,bank,79.922735,6.8503209,
950,Asian Int. School,school,79.8729297,6.8845129,Yes
951,Kirulapana Supermarket,convenience,79.8748931,6.8783952,
952,Barista,cafe,79.8730048,6.877371,
953,Institute of Architect,school,79.8711849,6.9064618,Yes
954,Institute of Engineers (IESL),school,79.8720539,6.9068559,Yes
955,Dudley Senanayake College,school,79.8734409,6.890663,Yes
956,Union Bank,bank,79.8872029,6.8867999,
957,Cargills Food City Nawala,supermarket,79.8875332,6.8879948,
958,Machan Nawala,restaurant,79.8897068,6.895357,
959,Dharma Nikethanaya Temple,place_of_worship,79.8950819,6.8994789,Yes
960,Kotte President's college,school,79.893301,6.9081169,Yes
961,New Lanka Caterers,cafe,79.893836,6.9001517,
962,Mayura Kovil,place_of_worship,79.8690094,6.8826442,Yes
963,Sumnadisi Bakery,cafe,79.8666088,6.8688077,
964,Hathbodiya Temple,place_of_worship,79.8695807,6.865186,Yes
965,Dehiwala Jumma Mosque,place_of_worship,79.8659543,6.8643126,Yes
966,Dehiwala Medical Centre,hospital,79.8664157,6.8607229,Yes
967,Temple,place_of_worship,79.8670057,6.8612874,Yes
968,Sumaga Vidyalaya,school,79.8701386,6.8484516,Yes
969,Zeyneb Jumma Mosque,place_of_worship,79.8696236,6.8449789,Yes
970,St.Anthoney's Church,place_of_worship,79.8675558,6.8438594,Yes
971,Sumanarama Temple,place_of_worship,79.8701171,6.840718,Yes
972,Shashtrananda School,place_of_worship,79.874106,6.8439807,Yes
973,Prathibimbaramaya Temple,place_of_worship,79.8743657,6.8600198,Yes
974,Dehiwala Central College,school,79.8732392,6.8533836,Yes
975,Sumanadisi Bakery,cafe,79.8721663,6.850891,
976,Keells Kotte,supermarket,79.9026221,6.8885882,
977,Royal Hospital,hospital,79.8638438,6.8760289,Yes
978,Curry Leaves Indian,restaurant,79.8641442,6.8761141,
979,St. Lawrence Convent,school,79.8621808,6.8756454,Yes
980,Methodist Church Wellawatta,place_of_worship,79.8612474,6.8764975,Yes
981,St. Clares Girl School,school,79.8619018,6.8765934,Yes
982,Lumbini Balika Vidyalaya,school,79.86423,6.8764762,Yes
983,Vidya Vijaya aramaya,place_of_worship,79.8959284,6.8809548,Yes
984,sri sumanaramaya,place_of_worship,79.8863662,6.8597544,Yes
985,Mahamaya balika Vidyalaya,school,79.8944236,6.8626198,Yes
986,Bavarian german,restaurant,79.8468691,6.9205897,
987,sasakawa Institute,school,79.8471159,6.9156265,Yes
988,State Motgage Bank,bank,79.8502714,6.9098448,
989,Sakura,restaurant,79.85174,6.9020806,
990,CEYPETCO Flower Road,fuel,79.8572804,6.9092125,
991,St. Margerets convent,school,79.853124,6.9145188,Yes
992,Kollupitiya,police,79.8491329,6.9138371,
993,Nihonbashi,restaurant,79.8472876,6.9200252,
994,Chinese Dragon,restaurant,79.8566124,6.8861609,
995,Ottery Tourist Inn,hotel,79.8554549,6.8851557,
996,Hindu college,school,79.8617098,6.8836858,Yes
997,Sapphire,hotel,79.8622085,6.8709088,
998,Pattini Devalaya,place_of_worship,79.8672968,6.856601,Yes
999,Concord,cinema,79.8658212,6.8552437,
1000,Concord,hotel,79.865709,6.8553227,
1001,Sri Venkateshwara Maha Vishnu Kovil,place_of_worship,79.881019,6.8571442,Yes
1002,Sive Subramaniya Kovil Slave Island,place_of_worship,79.8525759,6.9249696,Yes
1003,Slave Island,police,79.8492873,6.9276356,
1004,Muslim Mosque Slave Island,place_of_worship,79.8529888,6.9243979,Yes
1005,Sri Sariputtaaha Vidyalaya,school,79.8527206,6.9214157,Yes
1006,Sri Bodhiraja Viharaya,place_of_worship,79.8523129,6.9216394,Yes
1007,Post ofice Slave Island,post_box,79.8512185,6.9206595,
1008,Wekanfa Jumma Mosque,place_of_worship,79.8518301,6.9225873,Yes
1009,Stones & String Jewellary,jewelry,79.8528416,6.908488,
1010,Church,place_of_worship,79.8541398,6.9077212,Yes
1011,St. Anthony's Balika Vidyalaya,school,79.8553092,6.9079768,Yes
1012,Chesa Swiss,restaurant,79.8533133,6.9068903,
1013,Colombo House,guest_house,79.8563821,6.901959,
1014,Kent Cafe,cafe,79.8574653,6.9026329,
1015,Fashion Bug Kolpity,clothes,79.8558081,6.8993708,
1016,Mattarama Buddhis Temple,place_of_worship,79.8564867,6.8947428,Yes
1017,St.Mary's Vidyalaya,school,79.8573665,6.8949984,Yes
1018,St.Mary's Church,place_of_worship,79.8580961,6.8951902,Yes
1019,Wellawatta Vidyalaya,school,79.8682536,6.8803581,Yes
1020,Sri Punyawardanaramaya Temple,place_of_worship,79.8720785,6.858902,Yes
1021,Jumma Mosque,place_of_worship,79.8695143,6.8372459,Yes
1022,Sri Sugatha Dharmayathanaya,place_of_worship,79.8708579,6.831599,Yes
1023,Sri Maha Viharaya,place_of_worship,79.8733201,6.8716286,Yes
1024,Laufgs Kohuwala,supermarket,79.8851647,6.8664945,
1025,Cargills Kohuwala,supermarket,79.884156,6.8669132,
1026, ,fuel,79.8983241,6.8640403,
1027,Divulapitiya Temple,place_of_worship,79.8927392,6.8469159,Yes
1028,Ananda Vidyalaya,school,79.8984148,6.8471716,Yes
1029,Pillawa Temple,place_of_worship,79.8965051,6.8445404,Yes
1030,Cancer Hospital Maharagama,hospital,79.9199905,6.8383194,Yes
1031,Museaus College,school,79.8688389,6.9131958,Yes
1032, ,parking,79.8692131,6.9132624,
1033,Maccarthy Private Hospital,hospital,79.8697567,6.9139635,Yes
1034,level_crossing,level_crossing,80.0896571,7.197794,
1035,NTB Odel,bank,79.8656395,6.9166848,
1036,La Place,restaurant,79.8759365,6.9094795,
1037,Bayleaf,restaurant,79.8756897,6.9094795,
1038,Sri Bauddhaloka Maha Viharaya,place_of_worship,79.8766027,6.9085649,Yes
1039,Colombo International School CIS,school,79.8707893,6.9092718,Yes
1040,Sri Sambodi Maha Viharaya,place_of_worship,79.8711514,6.9092771,Yes
1041,Vipassana Meditation Center,place_of_worship,79.8716664,6.9089363,Yes
1042,Noor Jumma Mosque,place_of_worship,79.8753142,6.9051765,Yes
1043,Janadhipathi Balika Vidyalaya,school,79.8933923,6.8958781,Yes
1044,Ananda Vidyalaya Nawala,school,79.8888111,6.8930981,Yes
1045,Sri Siddhattaramaya,place_of_worship,79.8929953,6.8986154,Yes
1046,Veherakanda Temple,place_of_worship,79.9140319,6.8867925,Yes
1047,Maliban Aramaya,place_of_worship,79.9081418,6.8867499,Yes
1048,Ananda Sastralaya kotte,school,79.902713,6.882926,Yes
1049, ,fuel,79.917418,6.9022655,
1050, ,fuel,79.928949,6.9078573,
1051,Sri Subuthi Vidyalaya,school,79.9241009,6.9030356,Yes
1052,Laksala Pelawatta,convenience,79.9228027,6.8910424,
1053,traffic_signals,traffic_signals,79.860068,6.9150303,
1054,Lakmadura,gift,79.8578568,6.9138455,
1055,N T B,bank,79.8570736,6.9130892,
1056,Metro Cinema Nugegoda,cinema,79.8888924,6.8685263,
1057,St. John's Primary School,school,79.8893859,6.8686328,Yes
1058,Sarasavi,books,79.8890222,6.8705486,
1059,Sri Rewatha College,school,79.8974008,6.8681009,Yes
1060,Subadrarama Temple,place_of_worship,79.8977222,6.8678121,Yes
1061,Highlevel Plaza,convenience,79.9009573,6.862743,
1062,St.John's College,school,79.8899224,6.8693572,Yes
1063,Samudradevi Vidyalaya,school,79.889976,6.8705289,Yes
1064,level_crossing,level_crossing,79.921991,6.8520394,
1065,Sri Devram Maha Viharaya,place_of_worship,79.9426626,6.8537078,Yes
1066,Catholic Church,place_of_worship,79.930877,6.8434523,Yes
1067,Maligawatta Mahavidyalaya,school,79.8780917,6.9416932,Yes
1068,Kotahena,police,79.8625993,6.950767,
1069,bank,bank,79.8586055,6.9527799,
1070,Hindu College,school,79.8650599,6.9638397,Yes
1071,St. Joseph's Pre School,school,79.8629571,6.9634031,Yes
1072,St.John's Church,place_of_worship,79.8704458,6.9686107,Yes
1073,Sangamitta balika Vidyalaya,school,79.8731312,6.9212156,Yes
1074,Aquinas College,school,79.8743972,6.9176583,Yes
1075,Carey College,school,79.871217,6.9183324,Yes
1076,Yasodara Balika vidyalaya,school,79.872584,6.9169021,Yes
1077,Sri Bodhirajaramaya,place_of_worship,79.8681208,6.9229836,Yes
1078,Asoka Vidyalaya Maradana,school,79.8669728,6.9226534,Yes
1079,Stafford College,school,79.867402,6.9232392,Yes
1080,Fathima Church,place_of_worship,79.8652562,6.9226428,Yes
1081, ,fuel,79.864473,6.9215671,
1082,De soysa Hospital,hospital,79.8699769,6.9203103,Yes
1083,Nurses Training Institute,school,79.8819278,6.889457,Yes
1084,Dutch Reform Church,place_of_worship,79.8671874,6.9192026,Yes
1085,Maligakanda Maha Vidyalaya,school,79.8729488,6.9266367,Yes
1086,Sri Sugathawansaramaya,place_of_worship,79.870964,6.9233777,Yes
1087,CEYPETCO,fuel,79.8685714,6.9237717,
1088,Alhijra School,school,79.8749014,6.9289905,Yes
1089,Ananda Balika Viidyalaya Maradana,school,79.869655,6.9269456,Yes
1090,Mahabodi Samagama,place_of_worship,79.8692688,6.9268497,Yes
1091,bank,bank,79.8679277,6.9250498,
1092,Clifton Balika vidyalaya,school,79.868389,6.9272438,Yes
1093,Vidyadaya Pirivena,school,79.8694405,6.9273503,Yes
1094,St.John's College,school,79.8737642,6.9306626,Yes
1095,Manel Dematagoda,cinema,79.8775837,6.9291822,
1096,Anuruddha Balika Vidyalaya,school,79.8784098,6.9295763,Yes
1097,Dematagoda,police,79.8770365,6.9304283,
1098,St.Mathew,school,79.8775515,6.930194,Yes
1099,Somaramaya,place_of_worship,79.8743435,6.92227,Yes
1100,Sri Vajirasramaya,place_of_worship,79.87488,6.9216629,Yes
1101,Vivekaramaya,place_of_worship,79.8759421,6.9224511,Yes
1102,Jumma mosque,place_of_worship,79.8761996,6.9306733,Yes
1103,Grand Mosque,place_of_worship,79.8589289,6.9404749,Yes
1104,Hameed Al Hussaini College,school,79.8598042,6.9408877,Yes
1105,Vivekananda College,school,79.8594823,6.9431455,Yes
1106,Wolfendhal Girls School,school,79.8597076,6.9419846,Yes
1107,Kotahena Central College,school,79.8622289,6.9434331,Yes
1108,Kingsley Theater,cinema,79.8636022,6.9433585,
1109,Wolfendhal Church,place_of_worship,79.8590271,6.9420432,Yes
1110,Murugan Theater,cinema,79.8561564,6.9440934,
1111,St. Antonies College,school,79.8575619,6.9444235,Yes
1112,St. Anne's Convent,school,79.8580769,6.9442744,Yes
1113,St.Marry's College,school,79.8583558,6.9437845,Yes
1114,St.Marry's Church,place_of_worship,79.8595145,6.9456057,Yes
1115,New Kathiresan Kovil,place_of_worship,79.8546222,6.9421231,Yes
1116,bank,bank,79.8539677,6.9411805,
1117,Sri Bodhirajaramaya,place_of_worship,79.8573044,6.9424426,Yes
1118,Methodist Church,place_of_worship,79.8564139,6.9389919,Yes
1119, ,parking,79.8525515,6.9394712,
1120,St.John Fish Market,convenience,79.8530987,6.9399398,
1121,Jami Ul Alfar Mosque,place_of_worship,79.8517683,6.9384621,Yes
1122,Sri Bodhiraja Viharaya,place_of_worship,79.8481312,6.936585,Yes
1123,bank,bank,79.8499659,6.9348436,
1124,St.Peter's Church,place_of_worship,79.8446899,6.9375124,Yes
1125,CID building,police,79.8441105,6.9370438,
1126,Tourist Police Fort,police,79.8456211,6.9330319,
1127,Laksala Fort,convenience,79.8446958,6.9348584,
1128,Cargills Fort,supermarket,79.8447816,6.9356359,
1129,Genral Post Office Fort,post_office,79.8433976,6.9359447,
1130,Sambodhi Chaitya,place_of_worship,79.8419294,6.9384498,Yes
1131,Central Bank,bank,79.8424101,6.9339993,
1132,Catholic Church,place_of_worship,79.89409,6.9106902,Yes
1133,Holy Family Convent Rajagiriya,school,79.8948303,6.9112867,Yes
1134,Sri Vijayaramaya,place_of_worship,79.8951092,6.9121494,Yes
1135,Sub Post office Rajagiriya,post_box,79.892942,6.9127991,
1136,Temple,place_of_worship,79.8971155,6.9113293,Yes
1137,Sri Hada Widyalaya,school,79.8945621,6.9104879,Yes
1138,Vidyakeerthi Vidyalaya,school,79.8921374,6.91625,Yes
1139,Sri Parakumbha Vidyalaya,school,79.8903242,6.9143967,Yes
1140,Sri Amaraviharaya,place_of_worship,79.890182,6.913321,Yes
1141,Sudharmaramaya Purana Viharaya,place_of_worship,79.8973516,6.9169103,Yes
1142,St.Stephen's Church,place_of_worship,79.8973087,6.9192002,Yes
1143,Sri Sobhitha Vidyalaya,school,79.8944226,6.9199245,Yes
1144,Temple,place_of_worship,79.8914722,6.9303833,Yes
1145,ColHenry Olcat Vidyalaya,school,79.895989,6.9258036,Yes
1146,Edirisingharamaya,place_of_worship,79.8960641,6.9266344,Yes
1147,Anandaramaya,place_of_worship,79.8963431,6.9272627,Yes
1148,Sri Suramyaramaya,place_of_worship,79.9028018,6.9197541,Yes
1149, ,fuel,79.9103845,6.9142369,
1150,CID Department,police,80.2193543,6.0272243,
1151,World's End Trail Info,information,80.8051294,6.7961355,
1152,Seylan Bank - Boralesgamuwa Branch,bank,79.9018174,6.8405863,
1153,Arpico Super Center Boralesgamuwa,supermarket,79.9026167,6.8410204,
1154,BOC,bank,79.9017852,6.841332,
1155,HNB,bank,79.9024504,6.8410444,
1156,Boralegamuwa Church,place_of_worship,79.8962823,6.8380218,Yes
1157,Laugfs  Boralesgamuwa,supermarket,79.9016726,6.8415637,
1158,Borelsgamuwa,police,79.9014366,6.8412654,
1159,Cargills Athurugiriya,supermarket,79.9867452,6.879201,
1160,Perera & Sons,fast_food,79.9895883,6.8776619,
1161,Oruwala Hospital,hospital,79.9923659,6.8812325,Yes
1162,crossing,crossing,79.980834,6.863881,
1163,KFC Moratuwa,restaurant,79.884876,6.7845552,
1164,Tower Cinema moratuwa,cinema,79.8841572,6.7838627,
1165,Church,place_of_worship,79.8840285,6.7831595,Yes
1166,Prince of Walse College,school,79.8839469,6.7852223,Yes
1167,Methodist church,place_of_worship,79.8854232,6.786867,Yes
1168,school,school,79.8969782,6.7896157,Yes
1169,Methodist Church,place_of_worship,79.8971606,6.7880283,Yes
1170,Sri Wickramasingharamaya,place_of_worship,79.8807771,6.9338964,Yes
1171,bank,bank,79.8784864,6.9402733,
1172,Sri Sudharmaramaya,place_of_worship,79.8786098,6.9415753,Yes
1173,Gamini Vidyalaya,school,79.8905296,6.9534804,Yes
1174,Sedawatta vidyalaya,place_of_worship,79.8985011,6.9450776,Yes
1175,Sri nawaloka Viharaya,place_of_worship,79.88244,6.9520374,Yes
1176,Waragoda Junior school,school,79.8853368,6.9485708,Yes
1177,Purana Maha Viharaya,place_of_worship,79.8858733,6.9486666,Yes
1178,Cool Planet,convenience,79.9283402,6.8927047,
1179,Sri Lanka Institute of Chartered Accountants,school,79.8711525,6.901712,Yes
1180,CMC Car Park,parking,79.8709165,6.9013179,
1181,Shades,convenience,79.9291527,6.8917075,
1182,Abhinawaramaya,place_of_worship,79.9407903,6.8970239,Yes
1183,level_crossing,level_crossing,80.3962617,8.3192986,
1184,level_crossing,level_crossing,80.4065135,8.3296317,
1185,International Water Management Istitute,Research Institu,79.9269187,6.8920076,
1186,Microvision Car Sterio Shop,convenience,79.8789933,6.8699906,
1187,People's Bank Thalwathugoda,bank,79.9359776,6.8753079,
1188,Sensal,cafe,79.9202451,6.9025637,
1189,Commercial Bank of Ceylon PLC,bank,79.9199701,6.9022772,
1190,People's Bank Battaramulla,bank,79.9200881,6.902373,
1191,BOc Battaramulla,bank,79.9154962,6.9021068,
1192,Sri Bodhi Viharaya,place_of_worship,79.9919114,7.0985623,Yes
1193,Mekala Cinema,cinema,79.9894653,7.0926321,
1194,Tec Sri Lanka,school,79.9959975,7.09272,Yes
1195,Gampaha Public Super Market,supermarket,79.9948306,7.0923514,
1196,Gampaha Police Station,police,79.9947331,7.0918682,
1197,Softlogic Electronics,convenience,79.9954782,7.0922089,
1198,B O C Gampaha,bank,79.9951086,7.0934839,
1199,LIOC,fuel,79.9950872,7.0928238,
1200,Seylan Gampaha,bank,79.9953554,7.0929728,
1201,Commercial Bank Gampaha,bank,79.9969725,7.0939884,
1202,Co-Operative Hospital Gampaha,hospital,79.99914,7.0928584,Yes
1203,People's Bank Gampaha,bank,79.9975867,7.0921465,
1204,Public Hall cinema,cinema,79.9930916,7.0919002,
1205,N S B Gampaha,bank,79.9984882,7.0910032,
1206,Osusala,pharmacy,79.9990354,7.0909313,
1207, ,fuel,80.0004301,7.0920998,
1208,Gampaha Post Office,post_box,79.9939311,7.0908147,
1209,S L T Gampaha,telephone,79.9937793,7.0904208,
1210,Siddharata Vidyalaya,school,79.993465,7.091049,Yes
1211,Sri Sunandarama Pirivena,school,79.9931216,7.0908254,Yes
1212,Gajaba Vidyalaya,school,79.9992156,7.0842669,Yes
1213,Gampaha-Jaela Bus Stand,bus_station,79.9917553,7.0924241,
1214,Keels Gampaha,supermarket,79.994942,7.0940523,
1215,Rest House,hotel,79.9948962,7.0944692,
1216,St.Peters College,school,79.9953264,7.0945225,Yes
1217,Fire Brigade Gampaha,fire_station,79.9950789,7.0948737,Yes
1218, ,mini_roundabout,79.9994753,7.0910777,
1219,Yale College,school,80.0149656,7.0743545,Yes
1220,Gamma Fashions,convenience,79.9276491,6.9782342,
1221,Kiribathgoda Base Hospital,hospital,79.9292155,6.9838357,Yes
1222,Cargills Foodcity Kiribathgoda,supermarket,79.9312432,6.9821638,
1223,Clarion Hotel,hotel,79.9328847,6.9836547,
1224,Kiribathgoda Public Supermarket,marketplace,79.9296983,6.9801617,Yes
1225,Kiribathgoda Police Station,police,79.9296339,6.9780744,
1226,Vihara Maha Devi Balika Vidyalaya,school,79.9279387,6.9809711,Yes
1227,KFC Kiribathgoda,restaurant,79.9299665,6.980774,
1228,Kiribathgoda,bus_stop,79.930106,6.9799807,
1229,Keels Super Kiribathgoda,supermarket,79.929269,6.9774461,
1230,Lanka Pharmacy,hospital,79.9300631,6.9808166,Yes
1231,people's Bank Kiribathgoda,bank,79.9301811,6.9810403,
1232,Arpico Kiribathgoda,supermarket,79.9252351,6.9758487,
1233,Don & Sons Cafe,cafe,79.9254175,6.9765835,
1234,St. Francis de Sales Church,place_of_worship,79.923885,6.9733297,Yes
1235,Gangaramaya Temple,place_of_worship,79.92251,6.9673824,Yes
1236,Helena Wijewardane Girls School,school,79.9175748,6.9554866,Yes
1237,bank,bank,79.916888,6.9724782,
1238,Ketpely GTMS,school,80.22601,9.6486417,Yes
1239,NDB Kohuwala,bank,79.8857438,6.8677228,
1240,Petrogas Lanka,fuel,79.9140649,6.8544747,
1241,Sampath Bank Maharagama,bank,79.9247561,6.8485094,
1242,Sathara Institute,school,79.9302225,6.8448237,Yes
1243, ,turning_circle,79.7925522,9.5975274,
1244, ,turning_circle,79.7916069,9.5986731,
1245,AM PM Family Restaurant & Karaoke,restaurant,79.8874766,6.8877558,
1246,Athurugiriya Mahamathya Vidyalaya,school,79.9933818,6.874376,Yes
1247,Athurugiriya police Stations,police,79.9962035,6.8722563,
1248,Glendover Chinese,restaurant,80.7664275,6.967435,
1249, ,fuel,80.7673064,6.9671505,
1250,Cargills Super Market Nuwara Eliya,supermarket,80.7656593,6.9759706,
1251,Nuwara Eliya,police,80.7676378,6.9741618,
1252,Palihawadana (I.O.C),fuel,80.7669425,6.9742879,
1253,Nuwara Eliya Public Market,convenience,80.7669591,6.9731645,
1254,H N B Nuwara Eliya,bank,80.7661743,6.9721726,
1255,Sampath Bank Nuwara Eliya,bank,80.7653595,6.9733322,
1256,Commercial Bank  Nuwara Eliya,bank,80.7681865,6.9728583,
1257,Seylan Bank Nuwara Eliya,bank,80.7679397,6.9723258,
1258,Nuwara Eliya Medicals,pharmacy,80.7654775,6.9760691,
1259,Arpico Nuwara Eliya,supermarket,80.766516,6.9729408,
1260,Keels Super Market Nuwara Eliya,supermarket,80.7669546,6.9729369,
1261,N S B Nuwara Eliya,bank,80.7676608,6.973247,
1262,PC House,convenience,80.7640505,6.9765217,
1263,H N B ATM,bank,80.7805837,6.9721128,
1264,Muslim Mosque,place_of_worship,80.7810506,6.9724137,Yes
1265,Nuwara Eliya Base Hospital,hospital,80.7808511,6.9734561,Yes
1266,Nuwara Eliya Ecenomic Centre,convenience,80.7723911,6.9675069,
1267, ,toilets,80.811022,6.8394375,
1268, ,parking,80.8065013,6.8023902,
1269,Baker's Falls,viewpoint,80.7896892,6.7923318,
1270,Mini World's End,viewpoint,80.8002565,6.7852496,
1271,Watawala,station,80.5262205,6.9619835,
1272,level_crossing,level_crossing,80.5889469,7.2565843,
1273,Great Western,station,80.6890171,6.9571161,
1274,Nawalapitiya,station,80.5350019,7.05737,
1275,Kotagala,station,80.6085845,6.9279219,
1276,KFC,fast_food,80.6369796,7.2929638,
1277,Hotel Casamara,hotel,80.6372041,7.293502,
1278, ,fuel,80.6296688,7.3191779,
1279, ,parking,80.7548619,7.9518845,
1280,Queen's Hotel,hotel,80.6383893,7.2932016,
1281, ,toilets,80.7573586,7.9551877,
1282, ,parking,80.668002,7.899828,
1283,Cinnamon Lodge Habarana,hotel,80.7492269,8.03492,
1284,Kaudulla National Park,information,80.8766554,8.1342962,
1285,Juiceez,cafe,80.6679878,7.89967,
1286, ,toilets,80.8765246,8.1346278,
1287,Upeksha Vidanagamage,information,80.7523972,8.0351245,
1288,Well,attraction,81.0017929,7.9430602,
1289,Kiri Vehera,attraction,81.0034854,7.9632933,
1290, ,supermarket,80.6503847,7.8782072,
1291,Council Chamber,attraction,81.0017017,7.9428046,
1292,Talawakele,station,80.6609788,6.9401819,
1293, ,fuel,80.7557424,8.0398265,
1294,Nilaveli Beach Hotel,hotel,81.1883997,8.7061119,
1295, ,toilets,80.8234976,8.0326455,
1296,Gimanhala,restaurant,80.6504557,7.880203,
1297,level_crossing,level_crossing,81.1925067,8.5750582,
1298, ,fuel,80.6516963,7.8848873,
1299,Super Market,parking,80.0043063,6.8414376,
1300,Peoples Bank,bank,80.006029,6.842796,
1301,CWE,supermarket,80.0036857,6.8426946,
1302,Co-op Super,supermarket,79.9723086,6.8394229,
1303,Central Super Market,supermarket,80.004265,6.8416187,
1304,Cargills,supermarket,80.0049715,6.8414049,
1305,Abans,bank,80.0048063,6.8413577,
1306,bank,bank,80.0048492,6.8416346,
1307,Bank of Ceylon,bank,80.005729,6.842412,
1308,Co-op Super,supermarket,80.000959,6.8409718,
1309,Co-op Supermarket,supermarket,79.9639732,6.8422482,
1310, ,toilets,80.4195049,6.4360972,
1311,Boulder Gardens,hotel,80.3860367,6.5146387,
1312,bank,bank,81.2873676,6.2772732,
1313,Yala Village,hotel,81.4046125,6.2595788,
1314, ,toilets,80.4206344,6.4425735,
1315,Parama Dhamma Viharaya,place_of_worship,79.951509,6.8470213,Yes
1316,National Institute of Education,school,79.9327013,6.8444612,Yes
1317,Laugfs Sunup,supermarket,79.930384,6.8451199,
1318,Jade Restaurant,restaurant,79.9305636,6.8450737,
1319,Pizza Hut,restaurant,79.9306683,6.8449361,
1320,Summer Hut,restaurant,79.9308701,6.8448967,
1321,"Blow Hole\, Dikwella.",attraction,80.7386646,5.977607,
1322,Hibiscus Beach Hotel,hotel,79.9468356,6.615276,
1323,Happy Banana,restaurant,80.2479568,6.0099224,
1324, ,toilets,81.5189123,6.3715608,
1325,IDH Hospital,hospital,79.9165176,6.9226177,Yes
1326,Hatton National Bank,bank,79.8520481,6.9119167,
1327,Carmel Convent,school,79.8778552,6.9748682,Yes
1328, ,mini_roundabout,79.9507053,6.9032015,
1329,Kukuleganga Resort,hotel,80.2332244,6.5834092,
1330,Resort Parking,parking,80.234205,6.5834944,
1331,Sadishma Private Hospital,hospital,79.9536717,6.9032858,Yes
1332,Cargills Pharmacy,pharmacy,79.9539882,6.9040634,
1333,Malabe,bar,79.9539131,6.9041007,
1334,Cheff Food,supermarket,79.9541331,6.904303,
1335,177 bus stop,bus_stop,79.9532831,6.9044402,
1336, ,bus_stop,79.9499228,6.9048515,
1337, ,bus_stop,79.950191,6.9050113,
1338, ,department_store,79.9506407,6.9046603,
1339,Malabe Post Office 10115,post_box,79.9542497,6.9034882,
1340,Commercial Bank Malabe,bank,79.9532567,6.904713,
1341,bank,bank,79.9572171,6.9019856,
1342,NSB,bank,79.9535528,6.9043212,
1343,Malabe Boys Model School,school,79.9574635,6.9036374,Yes
1344,C.N.Teaching Hospital Ragama,hospital,79.9244924,7.0293464,Yes
1345,Faculty of Medicine University of Kelaniya,university,79.9284042,7.0289929,
1346,Molecular Medicine Unit Faculty of Medicine Raga,university,79.9275244,7.0283753,
1347,Faculty of Medicine Ragama,college,79.9280179,7.024723,Yes
1348,Thalahena,bus_stop,79.9452485,6.9079187,
1349,Kaduwela Bus Station,bus_stop,79.9832642,6.9363328,
1350,Keels Supper Kaduwela,supermarket,79.9822576,6.9339887,
1351,Yashodhararamaya,place_of_worship,79.950885,6.9016258,Yes
1352,Shalawanodyaramaya,place_of_worship,79.9495947,6.9049904,Yes
1353,Malabe Clock Tower,tower,79.955075,6.9039167,
1354, ,bus_stop,79.9540019,6.904355,
1355,Sri Bodhirukkaramaya,place_of_worship,79.9460397,6.9111094,Yes
1356,Thalangama Maha Vidyalaya,school,79.9467156,6.9136763,Yes
1357,place_of_worship,place_of_worship,79.9396238,6.9096609,Yes
1358,Shalukaramaya,place_of_worship,79.939656,6.9096502,Yes
1359,Central Chest Clinic,pharmacy,79.878028,6.9177342,
1360,traffic_signals,traffic_signals,79.8877087,6.9112036,
1361,Laugfs,fuel,79.933496,6.9071052,
1362,Kouchi,restaurant,79.9311786,6.9077656,
1363,Susilaramaya,place_of_worship,79.9573462,6.9084047,Yes
1364, ,pharmacy,79.9445682,6.9085112,
1365,Lanka wall tile,garden_centre,79.9438816,6.9085431,
1366, ,pharmacy,79.9394935,6.9084579,
1367, ,supermarket,79.936189,6.9082875,
1368, ,bus_stop,79.9150532,6.9024928,
1369, ,bus_stop,79.9174314,6.9020232,
1370, ,bus_stop,79.9143148,6.9023774,
1371,Kotte-Pagoda Bus Stand,bus_stop,79.9015456,6.883853,
1372, ,bus_stop,79.8987215,6.8829247,
1373, ,bus_stop,79.8971467,6.8819571,
1374, ,bus_stop,79.9057727,6.9021519,
1375, ,bus_stop,79.9071568,6.9034088,
1376, ,bus_stop,79.9076825,6.9033342,
1377, ,bus_stop,79.918186,6.9021945,
1378, ,bus_stop,79.8777863,6.9179376,
1379,Dental Surgery,hospital,79.8646684,6.9251045,Yes
1380, ,bus_stop,79.9617987,6.9049532,
1381, ,bus_stop,79.9648135,6.9067532,
1382, ,bus_stop,79.8880487,6.8694946,
1383, ,bus_stop,79.8962455,6.9087662,
1384, ,bus_stop,79.9439593,6.9088088,
1385, ,bus_stop,79.8944967,6.8788255,
1386, ,bus_stop,79.8917609,6.8742666,
1387, ,bus_stop,79.8906773,6.8725836,
1388,level_crossing,level_crossing,80.2779703,7.3180648,
1389,"St. Mary's Church\, Welivita",place_of_worship,79.962053,6.9355681,Yes
1390,St. Mary's School,school,79.9617233,6.9358324,Yes
1391,Thalagaha Fuel Station,fuel,80.2487679,6.0782373,
1392,Wanduramba Central College,school,80.253174,6.1341192,Yes
1393,Wanduramba Fuel Station,fuel,80.2545135,6.1350399,
1394,Sathosa Battaramulla,convenience,79.9213359,6.9035381,
1395,Singer Battaramulla,electronics,79.9215681,6.9036406,
1396, ,ferry_terminal,79.9894218,6.4407134,
1397,Star Beach Guesthouse,guest_house,79.8398667,7.2277167,
1398,Sunil Garden,guest_house,80.2446667,6.0091,
1399,Club Mirissa,guest_house,80.4573333,5.9458667,
1400,Ella Holiday Inn,guest_house,81.0489141,6.8734024,
1401,Reny Hotel,guest_house,81.2926333,6.2895667,
1402,Hotel Green Jewel,guest_house,80.80645,6.0375667,
1403,Blue Horizon,guest_house,80.8044667,6.0362667,
1404,Hospital Tissa,hospital,81.2685667,6.285,Yes
1405, ,guest_house,80.7979167,6.02805,
1406,Starfish,guest_house,80.80315,6.0355167,
1407,Kingfisher,guest_house,80.8019,6.0344167,
1408,Nonagama Guest Hoouse,guest_house,80.9947,6.11485,
1409,Pinnawela Elephant Orphanage,zoo,80.3872171,7.3007397,
1410,Tilak,guest_house,80.2442167,6.0087,
1411,Sakalya Lake View,guest_house,81.2759833,6.2895,
1412,Forest Glen Guesthouse,guest_house,80.63975,7.3006833,
1413,Ishara Guesthouse,guest_house,80.8014833,6.0340667,
1414,Wirrawali,guest_house,81.2258,6.2642167,
1415,Lake View Guesthouse,guest_house,80.4613,5.9468833,
1416,Sakarath Guesthouse,guest_house,80.7978333,6.0293167,
1417,Travellers Home,guest_house,81.2811,6.2816,
1418,Little Dream Travellers Resort,guest_house,80.6910167,7.8800667,
1419,Villa Araliya,guest_house,80.8034333,6.0357167,
1420,Sekeera Restaurant,restaurant,80.24365,6.00765,
1421,Mallika Guesthouse,guest_house,80.8048167,6.0365167,
1422,Dilena Guesthouse,guest_house,80.8011,6.0336,
1423,Curd Shop,pub,81.04905,6.87315,
1424,Ocean Moon,guest_house,80.4595,5.9451,
1425,Sea View Hotel,hotel,80.2436,6.0078667,
1426,Chillout Restaurant,restaurant,80.7978667,6.0276667,
1427,Ravindu,guest_house,80.7978667,6.0288833,
1428,White Villa,guest_house,80.2403667,6.0127167,
1429,Full Moon Resort,guest_house,80.2477,6.0097333,
1430,Naturel Cabanas,guest_house,80.8051167,6.0367,
1431,Tissa Inn,guest_house,81.2554833,6.2877167,
1432,Ghandi Gaya,guest_house,80.80265,6.0351167,
1433, ,ferry_terminal,79.3152079,9.2810778,
1434,Mootorola Lanka Pvt Ltd,tower,79.8871976,6.8868664,
1435,traffic_signals,traffic_signals,79.9807479,6.7839928,
1436, ,bus_stop,79.9061814,6.8982685,
1437,level_crossing,level_crossing,80.0417361,6.8453794,
1438,Padukka,bus_station,80.0907396,6.8418291,
1439,Kottawa,station,79.9682817,6.8438088,
1440,level_crossing,level_crossing,80.0891793,6.8403467,
1441,Godagama,station,80.0328103,6.8478868,
1442,Malapalla,station,79.9750421,6.8440546,
1443,level_crossing,level_crossing,80.1351971,6.9337415,
1444,level_crossing,level_crossing,79.8814494,6.9188027,
1445,Cotta Road,station,79.8845426,6.9133319,
1446,level_crossing,level_crossing,79.8857993,6.8739377,
1447,level_crossing,level_crossing,80.1175258,6.8696216,
1448,Kirulapona,station,79.8829669,6.8830434,
1449,Homagama Hospital Station,station,79.9924131,6.84568,
1450,Nawinna,station,79.9179181,6.8528528,
1451,level_crossing,level_crossing,79.8900977,6.8720972,
1452,Homagama,station,80.0042516,6.8456272,
1453,level_crossing,level_crossing,79.9990031,6.8474262,
1454,level_crossing,level_crossing,79.8838831,6.9146702,
1455,level_crossing,level_crossing,79.9948963,6.8467061,
1456,level_crossing,level_crossing,79.949437,6.8471448,
1457,N. M. Perera,memorial,79.888155,6.9105947,
1458,Avissawella,station,80.2076734,6.9546443,
1459,level_crossing,level_crossing,80.0936436,6.843051,
1460,level_crossing,level_crossing,79.87789,6.9271057,
1461,level_crossing,level_crossing,79.883521,6.9110237,
1462,level_crossing,level_crossing,79.927374,6.8478796,
1463,Nugegoda,station,79.8904368,6.8721246,
1464,level_crossing,level_crossing,79.8833027,6.876856,
1465,level_crossing,level_crossing,79.8829614,6.8825149,
1466,Padukka Police Station,police,80.0924442,6.84219,
1467,Padukka Market,marketplace,80.0903222,6.8412294,Yes
1468,Maharagama,station,79.9272198,6.8479956,
1469,level_crossing,level_crossing,80.0916643,6.8430143,
1470,Narahenpita,station,79.8779218,6.8969082,
1471,level_crossing,level_crossing,79.8790847,6.925733,
1472,Watareka,station,80.0598797,6.8431961,
1473,level_crossing,level_crossing,79.8926513,6.8723433,
1474,level_crossing,level_crossing,80.0191525,6.8468539,
1475,Puwakpitiya,station,80.1881002,6.9337055,
1476,level_crossing,level_crossing,79.9527734,6.84783,
1477,level_crossing,level_crossing,79.8845498,6.9130075,
1478,Kosgama Railway Station,station,80.1373542,6.9405871,
1479,level_crossing,level_crossing,79.8778954,6.8971359,
1480,level_crossing,level_crossing,79.8804913,6.9234488,
1481,Waga Station,station,80.1273942,6.9012799,
1482,level_crossing,level_crossing,80.1239379,6.8832287,
1483,level_crossing,level_crossing,79.9669268,6.8437403,
1484,level_crossing,level_crossing,80.0035675,6.8457224,
1485,level_crossing,level_crossing,79.8845299,6.912941,
1486,Meegoda,station,80.0465407,6.8434982,
1487,level_crossing,level_crossing,80.1092819,6.8527169,
1488,Udahamulla,station,79.9088317,6.862291,
1489,Pannipitiya,station,79.9488938,6.847395,
1490,level_crossing,level_crossing,79.8807589,6.8857712,
1491,level_crossing,level_crossing,79.878261,6.8941153,
1492,Padukka,station,80.0912171,6.8426695,
1493,level_crossing,level_crossing,79.8791806,6.887013,
1494,level_crossing,level_crossing,79.9282714,6.8470386,
1495,level_crossing,level_crossing,79.9562901,6.846168,
1496,level_crossing,level_crossing,79.8979662,6.8696064,
1497,level_crossing,level_crossing,79.8834763,6.9109467,
1498,level_crossing,level_crossing,79.9717002,6.8437231,
1499,level_crossing,level_crossing,80.1368759,6.9369515,
1500,level_crossing,level_crossing,79.9393703,6.8460455,
1501,Panagoda,station,80.0190327,6.8469569,
1502,Baseline Road,station,79.8785165,6.9263756,
1503,Keththarama Temple,place_of_worship,79.8717664,6.941557,Yes
1504,Bemmulla,station,80.020528,7.1224953,
1505,level_crossing,level_crossing,80.0367434,7.1339717,
1506, ,water_tower,79.871282,6.9759592,
1507,Peliyagoda Police Station,police,79.8860474,6.9551496,
1508,Ragama Market,marketplace,79.9225162,7.0286883,Yes
1509,Kurana,station,79.862228,7.1910457,
1510,Peralanda,station,79.9123148,7.0381473,
1511,Kapuwatte,station,79.8963049,7.0620861,
1512,level_crossing,level_crossing,79.8899825,7.1033872,
1513,Alawathupitiya,station,79.8870101,7.1161997,
1514,level_crossing,level_crossing,79.8520424,7.2531135,
1515,level_crossing,level_crossing,79.8495147,6.9237994,
1516,Colombo Lighthouse,lighthouse,79.8407631,6.9362682,
1517,level_crossing,level_crossing,79.8495229,6.9237597,
1518, ,lighthouse,79.8446446,6.9558998,
1519,Kochchikade Police Station,police,79.8571801,7.2650577,
1520,Kiragara Church,place_of_worship,79.8714257,7.3116086,Yes
1521,St. Anthony Church,place_of_worship,79.8585742,7.2656329,Yes
1522,Lunuwila,station,79.8629787,7.3467709,
1523,Waikkala Post Office,post_office,79.8598528,7.2772505,
1524,level_crossing,level_crossing,79.8603327,7.2765167,
1525, ,tower,79.8576804,7.2661181,
1526,"Holy Rosary Church\, Bandirippuwa",place_of_worship,79.8646826,7.3334476,Yes
1527,Boralessa,station,79.8630691,7.3199256,
1528,Kattuwa,station,79.8475348,7.2399268,
1529,Lunuwila Hospital,hospital,79.861647,7.3486769,Yes
1530,Paradise Road Gallery Cafe,restaurant,79.8548816,6.8986979,
1531,YWCA National Headquarters,hostel,79.8493303,6.9164526,Yes
1532,Sima Malaka Meditation Centre,place_of_worship,79.8545933,6.9168852,Yes
1533,Nattandiya Town Hall,townhall,79.8655375,7.4127875,
1534,Thummodara School,school,79.8586219,7.3913915,Yes
1535,Chilaw,station,79.7910147,7.5757204,
1536,Manuwangama,station,79.8273142,7.6005521,
1537,Nattandiya,station,79.8660005,7.4142417,
1538,"Dharmaraja College\, Marawila",school,79.8574683,7.4353939,Yes
1539,Palavi,station,79.8327545,7.9817418,
1540,Thummodara,station,79.8592159,7.391121,
1541,Kiriyankalli,station,79.828143,7.7571896,
1542,Nelumpokuna,station,79.8450514,7.4753618,
1543,Walahapitiya,station,79.8591053,7.4392901,
1544,Kudawewa,station,79.8531218,7.4621054,
1545,Kakkapalliya,station,79.8228083,7.532751,
1546,Noor Nagar,station,79.8398846,8.0359754,
1547,Puttalam,station,79.8378114,8.0227003,
1548,Madampe,station,79.8413911,7.4970242,
1549,Mundel,station,79.8255897,7.7975195,
1550,Bangadeniya,station,79.8285059,7.627269,
1551,level_crossing,level_crossing,79.8703906,6.8143212,
1552,level_crossing,level_crossing,79.883647,6.9313327,
1553,level_crossing,level_crossing,79.8703368,6.8142442,
1554, ,parking,79.9600645,6.5901049,
1555,Royal Palms  Hotel,hotel,79.9484259,6.6100906,
1556,Katukurunda Petrol Shed,fuel,79.9690045,6.5620622,
1557,St. Sebastian Church,place_of_worship,79.8833014,6.7740855,Yes
1558, ,fuel,79.8820094,6.7769858,
1559,Galawetimodara Temple,place_of_worship,79.9101066,6.696585,Yes
1560,Private Bus Station,bus_station,79.9077139,6.7119192,
1561,Pinwatta,station,79.9160479,6.6859824,
1562,River View Hotel,hotel,79.918774,6.6831012,
1563,St. Joseph Church,place_of_worship,79.880428,6.7791788,Yes
1564,Kalutara Temple Meditation Building,place_of_worship,79.96055,6.586342,Yes
1565,Katukurunda,station,79.9659991,6.5601827,
1566,level_crossing,level_crossing,79.9206561,6.6790111,
1567,level_crossing,level_crossing,79.9235719,6.6743647,
1568,Panadura Hospital,hospital,79.9066033,6.7216131,Yes
1569,Kalutara Public Library,library,79.9601273,6.5858353,
1570,De Soysa Hospital,hospital,79.877091,6.7838679,Yes
1571,Moratuwa Post Office,post_office,79.8828845,6.7749155,
1572,Navro Beach Hotel,hotel,79.9023228,6.713496,
1573,level_crossing,level_crossing,79.8827863,6.770831,
1574,Moratuwa,bus_station,79.8820469,6.7748233,
1575,Kalutara Bus Station,bus_station,79.9605882,6.584412,
1576,Train Halt 01,station,79.9405266,6.6322943,
1577,level_crossing,level_crossing,79.8826233,6.7728169,
1578,St. Mary's Church,place_of_worship,79.926587,6.6700418,Yes
1579,level_crossing,level_crossing,79.904552,6.7106856,
1580,Induruwa,station,80.0087108,6.3874272,
1581,level_crossing,level_crossing,80.053035,6.2498055,
1582,Ambalangoda Police Station,police,80.0475627,6.2449046,
1583,Mahainduruwa,station,80.0140059,6.3644288,
1584,Maggona,station,79.9814557,6.504845,
1585,Kandegoda,station,80.0529384,6.250216,
1586,Ambalangoda Bus Station,bus_station,80.0545971,6.236663,
1587,"St. Anne's Church\, Beruwala",place_of_worship,79.9835124,6.4819307,Yes
1588,Balapititya,bus_stop,80.0406641,6.2802312,
1589,Beruwala,station,79.9836937,6.4769544,
1590,Payagala North,station,79.9749255,6.5316754,
1591,level_crossing,level_crossing,80.0418529,6.2960384,
1592,level_crossing,level_crossing,80.5146069,5.9454192,
1593,level_crossing,level_crossing,80.528798,5.9479329,
1594,level_crossing,level_crossing,80.5267977,5.9472924,
1595,Ahangama,station,80.3638373,5.9732985,
1596,level_crossing,level_crossing,80.1688452,6.0686166,
1597,level_crossing,level_crossing,80.0995246,6.149993,
1598,level_crossing,level_crossing,80.1541917,6.0773243,
1599,level_crossing,level_crossing,80.0730945,6.1840686,
1600,level_crossing,level_crossing,80.0581009,6.2193701,
1601,Akurala,station,80.0648793,6.1920278,
1602,Rathgama,police,80.1400566,6.0923512,
1603,Rathgama,station,80.1400352,6.093342,
1604,level_crossing,level_crossing,80.10511,6.1289386,
1605, ,fuel,80.1621873,6.0721084,
1606,Telwatte,station,80.0889413,6.1690913,
1607,Matara,station,80.5431212,5.9519127,
1608,Kamburugamuwa,station,80.4958085,5.9434854,
1609,Unawatuna,station,80.2491569,6.0220051,
1610,level_crossing,level_crossing,80.5461054,5.9519806,
1611,Walpola,station,79.9310591,7.0471675,
1612,Bulugahagoda,station,79.945427,7.0656621,
1613,Heendeniya-Pattigoda,station,80.0470957,7.1411204,
1614,Gampaha,bus_station,79.9933937,7.092348,
1615,Veyangoda,bus_station,80.058147,7.1529791,
1616,Gampaha Church,place_of_worship,79.9956931,7.0942989,Yes
1617,level_crossing,level_crossing,80.2393634,7.293831,
1618,Veyangoda Post Office,post_office,80.0560933,7.1560749,
1619,Mirigama,bus_station,80.1269833,7.2426704,
1620,Polgahawela Junction,station,80.3010168,7.3310747,
1621,level_crossing,level_crossing,80.0741972,7.1851096,
1622,Wilwatta,station,80.1353311,7.2564881,
1623,level_crossing,level_crossing,80.3028699,7.3414693,
1624,Mirigama,station,80.1262827,7.242539,
1625,Alawwa,station,80.2387122,7.2933428,
1626,Bay Inn Weligama,hotel,80.422812,5.9672783,
1627, ,bus_stop,79.9055862,6.8946961,
1628,Cypetco,fuel,79.917428,6.8188264,
1629, ,fuel,80.0385089,6.7245991,
1630,Cargils Food City,supermarket,79.918128,6.8184054,
1631,Sampath Bank -Nawala,bank,79.8908028,6.880529,
1632,Hatton National Bank,bank,79.8870181,6.886443,
1633,NDB - Nawala,bank,79.8892777,6.8822188,
1634,HSBC -Nawala,bank,79.8899282,6.8814759,
1635,Commercial Bank of Ceylon PLC,bank,79.8902963,6.8811897,
1636,Hiriyala,station,80.3397981,7.6975804,
1637,level_crossing,level_crossing,80.2744352,7.8240067,
1638,Ambanpola,station,80.2460577,7.918907,
1639,Muttetugala,station,80.3793016,7.4956593,
1640,Sravasthipura,station,80.3769066,8.298815,
1641,level_crossing,level_crossing,80.2456917,7.9177196,
1642,level_crossing,level_crossing,80.434191,8.3578555,
1643,level_crossing,level_crossing,80.3738157,8.2914166,
1644,Nailiya,station,80.3586472,7.4499947,
1645,level_crossing,level_crossing,80.4392573,8.3576027,
1646,Maho Junction,station,80.2752105,7.8231897,
1647,level_crossing,level_crossing,80.2715348,7.9997492,
1648,level_crossing,level_crossing,80.368273,8.2756276,
1649,Talawa,station,80.3482318,8.2317659,
1650,Kurunegala,station,80.3742092,7.4768558,
1651,level_crossing,level_crossing,80.3759599,8.2964166,
1652,Tambuttegama,station,80.3038123,8.1543728,
1653,level_crossing,level_crossing,80.3300366,7.424244,
1654,level_crossing,level_crossing,80.3721837,8.2824633,
1655,level_crossing,level_crossing,80.3019242,7.3313426,
1656,level_crossing,level_crossing,80.3028835,7.3636703,
1657,Pothuhera,station,80.3274489,7.4198661,
1658,Anuradhapura New Town,halt,80.3992433,8.3213734,
1659,Thalawattegedara,station,80.3016096,7.3879534,
1660,Sampath Bank -Narahenpita,bank,79.8747216,6.893034,
1661,Commercial Bank -Narahenpita,bank,79.8748863,6.8930116,
1662,City French Corner,restaurant,80.0803549,6.7233581,
1663, ,buffer_stop,80.5016445,8.3583958,
1664,Mihintale,station,80.5016499,8.3586639,
1665,Airtel,tower,80.064192,6.7198486,
1666,place_of_worship,place_of_worship,80.0653521,6.7211265,Yes
1667,place_of_worship,place_of_worship,80.0488005,6.7204156,Yes
1668,Suntel,tower,80.0638385,6.719682,
1669,Narthanagala Monestry,place_of_worship,80.0723871,6.7167683,Yes
1670,level_crossing,level_crossing,79.8790015,6.9018402,
1671,Cargills Food City,supermarket,79.9593908,6.8669179,
1672,Thandikulam,station,80.4849148,8.7782669,
1673,level_crossing,level_crossing,80.4331941,8.4629315,
1674,Parasangahawewa,station,80.4314441,8.4453679,
1675,Vavuniya,station,80.4936258,8.7540337,
1676,Medawachchiya,station,80.4580521,8.5545224,
1677,Murikandi-Kokavil,station,80.4174937,9.2063548,
1678,Omanthai,station,80.500922,8.8640766,
1679,Thirumurikandi,station,80.406865,9.3057053,
1680,level_crossing,level_crossing,79.9998847,6.429687,
1681,Rajamaha Viharaya,place_of_worship,80.1082521,6.6247152,Yes
1682,SLIATE Headoffice,school,79.9593947,6.9039138,Yes
1683,NDB - Horana,bank,80.059151,6.71737,
1684,level_crossing,level_crossing,79.797994,7.5873875,
1685,level_crossing,level_crossing,79.8285298,7.639366,
1686,level_crossing,level_crossing,79.804009,7.5620684,
1687,level_crossing,level_crossing,79.8994398,6.9846438,
1688,level_crossing,level_crossing,79.8848434,6.934823,
1689,level_crossing,level_crossing,79.8871079,6.9379511,
1690,Tellippalai,station,80.0353114,9.785351,
1691,Meesalai,station,80.1940221,9.6760213,
1692,Mirusuvil,station,80.2351058,9.6778088,
1693,Inuvil,station,80.029425,9.7260131,
1694,Chavakachcheri,station,80.1584778,9.6570313,
1695,Kokkuvil,station,80.0210659,9.6874405,
1696,Chavakachcheri Hindu College,school,80.1727685,9.6647245,Yes
1697,Maviddapuram,station,80.0391309,9.8001903,
1698,Mallakam,station,80.0325491,9.7628695,
1699,Kankasanturai,station,80.0482752,9.8143202,
1700,Point Pedro Post Office,post_office,80.2368818,9.8236422,
1701,Eluthumadduval,station,80.2655213,9.6608279,
1702,Jaffna Public Library,library,80.0118084,9.6621943,
1703,Elephant Pass,station,80.3998894,9.5313971,
1704,Chunnakam,station,80.0333297,9.7457716,
1705,Jaffna,station,80.020759,9.665517,
1706,Punkankulam,station,80.0384397,9.6593886,
1707,Chavakachcheri Base Hospital,hospital,80.1669594,9.6616371,Yes
1708, ,fuel,79.8907101,6.8749927,
1709,atm,atm,79.922714,6.8019844,
1710,Pizza Hut - Piliyandala,fast_food,79.9215373,6.8055921,
1711,Dialog -piliyandala Earth Station,tower,79.917302,6.8050555,
1712,Peoples Bank - Piliyandala,bank,79.9257758,6.7998045,
1713,Cargils Food City,supermarket,79.9213403,6.8060668,
1714,Fire Brigade Horana,fire_station,80.0622976,6.7144553,Yes
1715, ,fountain,80.0642766,6.7117916,
1716,Wijesiri Bakers,bakery,80.0691933,6.7182664,
1717,Wattegama Bus Station,bus_station,80.6810288,7.3495236,
1718,place_of_worship,place_of_worship,80.7113761,7.4291895,Yes
1719,Shrine,place_of_worship,80.7121272,7.4345211,Yes
1720,Hunas Falls Hotel,hotel,80.6908677,7.4012673,
1721,Teafactory,works,80.6977822,7.4315346,
1722,Ashburnham Estate,guest_house,80.6844751,7.4293786,
1723, ,parking,80.691178,7.4011611,
1724, ,tower,80.6900295,7.3836476,
1725, ,tower,80.6914033,7.3885319,
1726, ,fuel,80.6739607,7.3258371,
1727,Earl's Regency Hotel,hotel,80.6694726,7.2820391,
1728,Cargills Food City,supermarket,80.6739888,7.2803156,
1729,St. Aloysius College,school,80.2120989,6.0354036,Yes
1730,Mannar,station,79.8936784,8.9700474,
1731, ,ferry_terminal,79.7301486,9.1098351,
1732,Talaimannar,station,79.7303189,9.1073101,
1733,level_crossing,level_crossing,80.2814864,7.8190524,
1734,Awkana,station,80.5850762,8.05886,
1735,Habarana,station,80.7696162,8.0573686,
1736,Galoya Junction,station,80.8677855,8.1374471,
1737,Steam Boat,restaurant,79.8868579,6.887283,
1738,Agbopura,station,80.9796968,8.3266772,
1739,Kantale,station,81.0061974,8.3561663,
1740,Trincomalee,station,81.2263216,8.5845449,
1741,Chinabay,station,81.1904123,8.5563837,
1742, ,clock,81.2347694,8.5774875,
1743,Mohideen Mosque,place_of_worship,81.232962,8.5792815,Yes
1744,Polonnaruwa,station,81.0333554,7.9302582,
1745,Minneriya,station,80.8947904,8.0653526,
1746,Hingurakgoda,station,80.9513818,8.0396586,
1747,level_crossing,level_crossing,81.0346602,7.928226,
1748,Parakum Uyana,station,81.0178043,7.9736235,
1749,Eravur,station,81.6045132,7.7855982,
1750,"Valaichchenai\, Oddamavadi",station,81.5318482,7.9103166,
1751,Wattegama,station,80.6823781,7.3505026,
1752,Ihalakotte,station,80.4692262,7.2887945,
1753,Pilimathalawa,station,80.5525585,7.2667957,
1754,Peradeniya Old Station,station,80.5907042,7.2540878,
1755,Ukuwela,station,80.6336503,7.4208966,
1756,Balana,station,80.4893691,7.2666509,
1757,Matale,station,80.6249653,7.4678053,
1758,Pannaliya,station,80.3252888,7.3284393,
1759,level_crossing,level_crossing,80.634315,7.3068365,
1760,Kadugannawa,station,80.5208515,7.2577592,
1761,Katugastota,station,80.6330024,7.3303195,
1762,level_crossing,level_crossing,80.5735774,7.1686975,
1763,Koshinna,station,80.5951905,7.2334794,
1764,Kahapitiya Jummah Masjid,place_of_worship,80.5750237,7.170952,Yes
1765,Gelioya,station,80.5986925,7.2140122,
1766,Ulapane,station,80.5597601,7.1083924,
1767,Tembligala,station,80.5592768,7.1331158,
1768,Galboda,station,80.5300671,6.9862149,
1769,Rosella,station,80.5587028,6.9346864,
1770,Ihala Watawala,station,80.5421737,6.9479577,
1771,Inguru Oya,station,80.545652,7.0181275,
1772,Ambewela,station,80.8144885,6.8774121,
1773,Perakumpura,station,80.7551605,6.9124293,
1774,Dagoba,place_of_worship,80.9387748,6.7805778,Yes
1775,Buddhist Temple Haputale,place_of_worship,80.9487396,6.7664688,Yes
1776,Diyatalawa,station,80.959302,6.8022349,
1777,Saint Benedict's Monastery,place_of_worship,80.930984,6.7721839,Yes
1778,St. Andrews Church,place_of_worship,80.9609354,6.7694242,Yes
1779,Haputale Water Reservoir,reservoir_covere,80.9345333,6.7713811,
1780,Haputale Bus Stand,bus_station,80.9604159,6.7688873,
1781,Ohiya,station,80.8437574,6.8179398,
1782,Haputale Petrol Station,fuel,80.9598837,6.7683585,
1783,St. Paul's Church,place_of_worship,80.9552827,6.7666744,Yes
1784,Idalgashinna,station,80.8969255,6.7794003,
1785,Badulla Bus Stand,bus_station,81.0575196,6.9878946,
1786,level_crossing,level_crossing,80.9900769,6.8284127,
1787,Hali-Ela,station,81.0335082,6.9538677,
1788,Demodara,station,81.0628314,6.9028683,
1789,Uduwara,station,81.0446442,6.930429,
1790,Heeloya,station,81.025766,6.8442279,
1791,Badulla Police Station,police,81.0568777,6.9935911,
1792,Badulla,station,81.0599493,6.9797006,
1793,Badulla Central Hospital,hospital,81.058295,6.9859419,Yes
1794,Snt Mary'sChurch,place_of_worship,81.0586284,6.9905847,Yes
1795,Badulla,station,81.0615776,6.9768506,
1796,Zaviya Mosque,place_of_worship,81.0592856,6.980947,Yes
1797,Badulla Post Office,post_office,81.0579765,6.9876023,
1798,Kitalelle,station,81.0389211,6.8627042,
1799,Badulla Petrol Station,fuel,81.0574826,6.9865457,
1800,Anuradhapura Police Station,police,80.4074417,8.3294913,
1801,People's Bank,bank,80.4112329,8.3352795,
1802,Mohideen Grand Mosque,place_of_worship,80.411125,8.3329379,Yes
1803,Seylan Bank,bank,80.4104461,8.3335987,
1804,Central Bank,bank,80.4100473,8.3320666,
1805,Bank of Ceylon,bank,80.4111438,8.33472,
1806,Old Bus Stand,bus_station,80.4145967,8.3405163,
1807,Anuradhapura Post Office,post_office,80.4104018,8.3330301,
1808,Sovereign German restaurant,restaurant,79.8903613,6.8810872,
1809,Katunayake - VOR/DME,beacon,79.8685749,7.1612812,
1810,Bandaranaike NDB,beacon,79.9511199,7.2685338,
1811,Rathmalana Check point,surveillance,79.8878558,6.8019995,
1812,school,school,79.8899613,6.8147858,Yes
1813,school,school,79.8890035,6.8160506,Yes
1814,Beli-Lena Caves,archaeological_s,80.4362296,7.0031358,
1815,Castlereagh Family Cottages,guest_house,80.5882039,6.8614651,
1816,Seylan Maharagama,bank,79.9309494,6.8447055,
1817,Jetwing Blue Oceanic,hotel,79.8420185,7.2422037,
1818, ,fuel,80.0048328,6.7701096,
1819,bus_station,bus_station,80.522517,6.8254352,
1820,Snake farm,zoo,80.4835523,6.0396569,
1821,traffic_signals,traffic_signals,79.8881438,6.9109104,
1822,traffic_signals,traffic_signals,79.8875573,6.9108612,
1823,place_of_worship,place_of_worship,79.9726577,6.879834,Yes
1824,H N B Oldmoor Street,bank,79.862524,6.9403618,
1825,Seylan Oldmoor Street,bank,79.8619795,6.9400541,
1826,Pan Asi Oldmorr Street,bank,79.8622763,6.9399782,
1827,Union Bank Oldmoor Street,bank,79.8623701,6.9400103,
1828,Nilmini Lodge,guest_house,80.7538541,7.9518357,
1829,K.B Rathnayake Maha Vidyalaya,school,80.4126484,8.3134084,Yes
1830,D.S. Senanayake Maha Vidyalaya,school,80.401265,8.313002,Yes
1831,Sampath Thalawathugoda,bank,79.9353276,6.8770697,
1832, ,fuel,81.0010601,7.9396409,
1833,Manel Guest House,motel,81.0005449,7.9379012,
1834,Polonnaruwa,police,81.0000511,7.9387489,
1835, ,fuel,81.0354592,7.9267384,
1836,Polonnaruwa Rest House,hotel,80.9971894,7.9426749,
1837,Laksha Uyana,station,80.9967737,7.988292,
1838,Royal Central College Polonnaruwa,school,81.0024753,7.9161361,Yes
1839,place_of_worship,place_of_worship,80.2386571,6.054224,Yes
1840,place_of_worship,place_of_worship,80.2433316,6.0599122,Yes
1841,level_crossing,level_crossing,80.2343653,6.0387509,
1842,level_crossing,level_crossing,80.2322081,6.039238,
1843,place_of_worship,place_of_worship,80.2445105,6.0403011,Yes
1844,level_crossing,level_crossing,80.2355948,6.0381891,
1845,Uppuweli Police Station,police,81.2166334,8.5916729,
1846,place_of_worship,place_of_worship,81.2159688,8.5915931,Yes
1847,Trinco Poloce Station,police,81.2244499,8.5798493,
1848,Mari Amman Kovil,place_of_worship,81.2266172,8.5809367,Yes
1849,Buddhist Temple,place_of_worship,81.2247128,8.5816528,Yes
1850,Saraswathie Theatre,cinema,81.2271643,8.5803055,
1851,Orr's Hill Vivekananda School,school,81.2239028,8.5785392,Yes
1852,police,police,81.226129,8.5814778,
1853,police,fuel,81.2235434,8.580576,
1854,police,fuel,81.2258393,8.5815361,
1855,police,library,81.2191821,8.5759241,
1856,police,school,81.2258983,8.5755737,Yes
1857,police,cinema,81.227674,8.5753615,
1858,police,motel,81.2223632,8.5751547,
1859,police,theatre,81.2257589,8.5767781,
1860,Kalaimahai Vidyalaya,school,81.2076555,8.5925838,Yes
1861,Andrew Movie Hall,cinema,81.2299379,8.5756959,
